$GPRMC,215543.000,A,4902.0217,N,12303.3760,W,0.29,169.95,291115,,,A*74
$GPGGA,215544.000,4902.0217,N,12303.3759,W,1,07,1.5,10.8,M,-16.9,M,,0000*54
$GPGSA,M,3,14,11,08,32,18,01,24,,,,,,2.8,1.5,2.4*34
$GPRMC,215544.000,A,4902.0217,N,12303.3759,W,0.42,169.95,291115,,,A*74
$GPGGA,215545.000,4902.0217,N,12303.3760,W,1,07,1.5,10.6,M,-16.9,M,,0000*51
$GPGSA,M,3,14,11,08,32,18,01,24,,,,,,2.8,1.5,2.4*34
$GPRMC,215545.000,A,4902.0217,N,12303.3760,W,0.40,169.95,291115,,,A*7D
$GPGGA,215546.000,4902.0217,N,12303.3762,W,1,07,1.5,11.0,M,-16.9,M,,0000*57
$GPGSA,M,3,14,11,08,32,18,01,24,,,,,,2.8,1.5,2.4*34
$GPRMC,215546.000,A,4902.0217,N,12303.3762,W,0.23,169.95,291115,,,A*79
$GPGGA,215547.000,4902.0217,N,12303.3763,W,1,07,1.5,11.0,M,-16.9,M,,0000*57
$GPGSA,M,3,14,11,08,32,18,01,24,,,,,,2.8,1.5,2.4*34
$GPRMC,215547.000,A,4902.0217,N,12303.3763,W,0.18,169.95,291115,,,A*71
$GPGGA,215548.000,4902.0218,N,12303.3765,W,1,07,1.5,11.6,M,-16.9,M,,0000*57
$GPGSA,M,3,14,11,08,32,18,01,24,,,,,,2.8,1.5,2.4*34
$GPGSV,3,1,12,14,76,132,21,11,33,301,26,08,31,252,22,32,29,272,31*79
$GPGSV,3,2,12,18,25,089,19,01,22,309,31,24,19,044,22,10,35,085,34*76
$GPGSV,3,3,12,21,01,140,07,22,65,081,10,48,32,193,,04,48,297,*73
$GPRMC,215548.000,A,4902.0218,N,12303.3765,W,0.08,169.95,291115,,,A*76
$GPGGA,215549.000,4902.0218,N,12303.3764,W,1,07,1.5,12.1,M,-16.9,M,,0000*53
$GPGSA,M,3,14,11,08,32,18,01,24,,,,,,2.8,1.5,2.4*34
$GPRMC,215549.000,A,4902.0218,N,12303.3764,W,0.48,169.95,291115,,,A*72
$GPGGA,215550.000,4902.0216,N,12303.3762,W,1,07,1.5,10.9,M,-16.9,M,,0000*59
$GPGSA,M,3,14,11,08,32,18,01,24,,,,,,2.8,1.5,2.4*34
$GPRMC,215550.000,A,4902.0216,N,12303.3762,W,0.69,169.95,291115,,,A*71
$GPGGA,215551.000,4902.0214,N,12303.3759,W,1,07,1.5,9.5,M,-16.9,M,,0000*66
$GPGSA,M,3,14,11,08,32,18,01,24,,,,,,2.8,1.5,2.4*34
$GPRMC,215551.000,A,4902.0214,N,12303.3759,W,0.62,169.95,291115,,,A*71
$GPGGA,215552.000,4902.0213,N,12303.3757,W,1,07,1.5,9.6,M,-16.9,M,,0000*6F
$GPGSA,M,3,14,11,08,32,18,01,24,,,,,,2.8,1.5,2.4*34
$GPRMC,215552.000,A,4902.0213,N,12303.3757,W,0.68,169.95,291115,,,A*71
$GPGGA,215553.000,4902.0213,N,12303.3754,W,1,07,1.5,9.6,M,-16.9,M,,0000*6D
$GPGSA,M,3,14,11,08,32,18,01,24,,,,,,2.8,1.5,2.4*34
$GPGSV,3,1,12,14,76,132,21,11,33,301,25,08,31,251,22,32,29,272,31*79
$GPGSV,3,2,12,18,25,089,19,01,22,309,30,24,19,044,22,10,35,085,33*70
$GPGSV,3,3,12,22,65,081,09,48,32,193,,04,49,297,,27,19,217,*73
$GPRMC,215553.000,A,4902.0213,N,12303.3754,W,0.60,169.95,291115,,,A*7B
$GPGGA,215554.000,4902.0213,N,12303.3750,W,1,07,1.5,10.1,M,-16.9,M,,0000*51
$GPGSA,M,3,14,11,08,32,18,01,24,,,,,,2.8,1.5,2.4*34
$GPRMC,215554.000,A,4902.0213,N,12303.3750,W,0.62,169.95,291115,,,A*7A
$GPGGA,215555.000,4902.0213,N,12303.3748,W,1,07,1.5,9.8,M,-16.9,M,,0000*68
$GPGSA,M,3,14,11,08,32,18,01,24,,,,,,2.8,1.5,2.4*34
$GPRMC,215555.000,A,4902.0213,N,12303.3748,W,0.62,169.95,291115,,,A*72
$GPGGA,215556.000,4902.0213,N,12303.3749,W,1,07,1.5,9.7,M,-16.9,M,,0000*65
$GPGSA,M,3,14,11,08,32,18,01,24,,,,,,2.8,1.5,2.4*34
$GPRMC,215556.000,A,4902.0213,N,12303.3749,W,0.43,169.95,291115,,,A*73
$GPGGA,215557.000,4902.0213,N,12303.3748,W,1,07,1.5,9.2,M,-16.9,M,,0000*60
$GPGSA,M,3,14,11,08,32,18,01,24,,,,,,2.8,1.5,2.4*34
$GPRMC,215557.000,A,4902.0213,N,12303.3748,W,0.28,169.95,291115,,,A*7E
$GPGGA,215558.000,4902.0214,N,12303.3748,W,1,07,1.5,9.8,M,-16.9,M,,0000*62
$GPGSA,M,3,14,11,08,32,18,01,24,,,,,,2.8,1.5,2.4*34
$GPGSV,3,1,12,14,76,131,21,11,33,300,24,08,31,251,21,32,29,272,31*79
$GPGSV,3,2,12,18,24,089,19,01,22,309,30,24,19,044,22,10,35,085,32*70
$GPGSV,3,3,12,21,01,140,13,22,65,081,09,27,19,217,15,48,32,193,*77
$GPRMC,215558.000,A,4902.0214,N,12303.3748,W,0.28,169.95,291115,,,A*76
$GPGGA,215559.000,4902.0214,N,12303.3748,W,1,07,1.5,9.8,M,-16.9,M,,0000*63
$GPGSA,M,3,14,11,08,32,18,01,24,,,,,,2.8,1.5,2.4*34
$GPRMC,215559.000,A,4902.0214,N,12303.3748,W,0.38,169.95,291115,,,A*76
$GPGGA,215600.000,4902.0214,N,12303.3747,W,1,07,1.5,10.3,M,-16.9,M,,0000*50
$GPGSA,M,3,14,11,08,32,18,01,24,,,,,,2.8,1.5,2.4*34
$GPRMC,215600.000,A,4902.0214,N,12303.3747,W,0.71,169.95,291115,,,A*7B
$GPGGA,215601.000,4902.0214,N,12303.3745,W,1,07,1.5,10.3,M,-16.9,M,,0000*53
$GPGSA,M,3,14,11,08,32,18,01,24,,,,,,2.8,1.5,2.4*34
$GPRMC,215601.000,A,4902.0214,N,12303.3745,W,0.52,169.95,291115,,,A*79
$GPGGA,215602.000,4902.0214,N,12303.3743,W,1,07,1.5,11.3,M,-16.9,M,,0000*57
$GPGSA,M,3,14,11,08,32,18,01,24,,,,,,2.8,1.5,2.4*34
$GPRMC,215602.000,A,4902.0214,N,12303.3743,W,0.50,169.95,291115,,,A*7E
$GPGGA,215603.000,4902.0214,N,12303.3742,W,1,07,1.5,12.1,M,-16.9,M,,0000*56
$GPGSA,M,3,14,11,08,32,18,01,24,,,,,,2.8,1.5,2.4*34
$GPGSV,3,1,12,14,76,131,21,11,33,300,24,08,31,251,21,32,29,272,31*79
$GPGSV,3,2,12,18,24,089,19,01,22,309,30,24,19,044,22,10,35,085,32*70
$GPGSV,3,3,12,22,65,081,08,48,32,193,,04,49,297,,27,19,217,*72
$GPRMC,215603.000,A,4902.0214,N,12303.3742,W,0.30,169.95,291115,,,A*78
$GPGGA,215604.000,4902.0215,N,12303.3740,W,1,07,1.5,12.8,M,-16.9,M,,0000*5B
$GPGSA,M,3,14,11,08,32,18,01,24,,,,,,2.8,1.5,2.4*34
$GPRMC,215604.000,A,4902.0215,N,12303.3740,W,0.28,169.95,291115,,,A*75
$GPGGA,215605.000,4902.0215,N,12303.3741,W,1,07,1.5,12.9,M,-16.9,M,,0000*5A
$GPGSA,M,3,14,11,08,32,18,01,24,,,,,,2.8,1.5,2.4*34
$GPRMC,215605.000,A,4902.0215,N,12303.3741,W,0.00,169.95,291115,,,A*7F
$GPGGA,215606.000,4902.0215,N,12303.3741,W,1,07,1.5,12.9,M,-16.9,M,,0000*59
$GPGSA,M,3,14,11,08,32,18,01,24,,,,,,2.8,1.5,2.4*34
$GPRMC,215606.000,A,4902.0215,N,12303.3741,W,0.00,169.95,291115,,,A*7C
$GPGGA,215607.000,4902.0215,N,12303.3741,W,1,07,1.5,12.9,M,-16.9,M,,0000*58
$GPGSA,M,3,14,11,08,32,18,01,24,,,,,,2.8,1.5,2.4*34
$GPRMC,215607.000,A,4902.0215,N,12303.3741,W,0.00,169.95,291115,,,A*7D
$GPGGA,215608.000,4902.0215,N,12303.3741,W,1,07,1.5,12.8,M,-16.9,M,,0000*56
$GPGSA,M,3,14,11,08,32,18,01,24,,,,,,2.8,1.5,2.4*34
$GPGSV,3,1,12,14,76,131,21,11,33,300,23,08,31,251,22,32,29,272,31*7D
$GPGSV,3,2,12,18,24,089,19,01,22,309,30,24,19,044,22,10,35,085,32*70
$GPGSV,3,3,12,21,01,140,14,22,64,081,07,48,32,193,,04,49,297,*77
$GPRMC,215608.000,A,4902.0215,N,12303.3741,W,0.00,169.95,291115,,,A*72
$GPGGA,215609.000,4902.0215,N,12303.3741,W,1,07,1.5,12.8,M,-16.9,M,,0000*57
$GPGSA,M,3,14,11,08,32,18,01,24,,,,,,2.8,1.5,2.4*34
$GPRMC,215609.000,A,4902.0215,N,12303.3741,W,0.00,169.95,291115,,,A*73
$GPGGA,215610.000,4902.0215,N,12303.3741,W,1,07,1.5,12.8,M,-16.9,M,,0000*5F
$GPGSA,M,3,14,11,08,32,18,01,24,,,,,,2.8,1.5,2.4*34
$GPRMC,215610.000,A,4902.0215,N,12303.3741,W,0.00,169.95,291115,,,A*7B
$GPGGA,215611.000,4902.0215,N,12303.3741,W,1,07,1.5,12.8,M,-16.9,M,,0000*5E
$GPGSA,M,3,14,11,08,32,18,01,24,,,,,,2.8,1.5,2.4*34
$GPRMC,215611.000,A,4902.0215,N,12303.3741,W,0.00,169.95,291115,,,A*7A
$GPGGA,215612.000,4902.0215,N,12303.3741,W,1,07,1.5,12.8,M,-16.9,M,,0000*5D
$GPGSA,M,3,14,11,08,32,18,01,24,,,,,,2.8,1.5,2.4*34
$GPRMC,215612.000,A,4902.0215,N,12303.3741,W,0.00,169.95,291115,,,A*79
$GPGGA,215613.000,4902.0215,N,12303.3741,W,1,07,1.5,12.8,M,-16.9,M,,0000*5C
$GPGSA,M,3,14,11,08,32,18,01,24,,,,,,2.8,1.5,2.4*34
$GPGSV,3,1,12,14,76,131,21,11,33,300,23,08,31,251,22,32,29,272,31*7D
$GPGSV,3,2,12,18,24,089,19,01,22,309,30,24,19,044,22,10,35,085,32*70
$GPGSV,3,3,12,21,01,140,12,22,64,081,04,27,19,217,15,48,32,193,*7A
$GPRMC,215613.000,A,4902.0215,N,12303.3741,W,0.00,169.95,291115,,,A*78
$GPGGA,215614.000,4902.0215,N,12303.3741,W,1,07,1.5,12.8,M,-16.9,M,,0000*5B
$GPGSA,M,3,14,11,08,32,18,01,24,,,,,,2.8,1.5,2.4*34
$GPRMC,215614.000,A,4902.0215,N,12303.3741,W,0.00,169.95,291115,,,A*7F
$GPGGA,215615.000,4902.0215,N,12303.3741,W,1,07,1.5,12.8,M,-16.9,M,,0000*5A
$GPGSA,M,3,14,11,08,32,18,01,24,,,,,,2.8,1.5,2.4*34
$GPRMC,215615.000,A,4902.0215,N,12303.3741,W,0.00,169.95,291115,,,A*7E
$GPGGA,215616.000,4902.0215,N,12303.3741,W,1,07,1.5,12.8,M,-16.9,M,,0000*59
$GPGSA,M,3,14,11,08,32,18,01,24,,,,,,2.8,1.5,2.4*34
$GPRMC,215616.000,A,4902.0215,N,12303.3741,W,0.00,169.95,291115,,,A*7D
$GPGGA,215617.000,4902.0215,N,12303.3741,W,1,07,1.5,12.8,M,-16.9,M,,0000*58
$GPGSA,M,3,14,11,08,32,18,01,24,,,,,,2.8,1.5,2.4*34
$GPRMC,215617.000,A,4902.0215,N,12303.3741,W,0.00,169.95,291115,,,A*7C
$GPGGA,215618.000,4902.0215,N,12303.3741,W,1,07,1.5,12.8,M,-16.9,M,,0000*57
$GPGSA,M,3,14,11,08,32,18,01,24,,,,,,2.8,1.5,2.4*34
$GPGSV,3,1,12,14,76,131,20,11,33,300,23,08,31,251,21,32,29,272,32*7C
$GPGSV,3,2,12,18,24,089,19,01,22,309,29,24,19,044,22,10,35,085,32*78
$GPGSV,3,3,12,21,01,140,11,22,64,081,04,31,07,162,16,48,32,193,*73
$GPRMC,215618.000,A,4902.0215,N,12303.3741,W,0.00,169.95,291115,,,A*73
$GPGGA,215619.000,4902.0215,N,12303.3741,W,1,07,1.5,12.8,M,-16.9,M,,0000*56
$GPGSA,M,3,14,11,08,32,18,01,24,,,,,,2.8,1.5,2.4*34
$GPRMC,215619.000,A,4902.0215,N,12303.3741,W,0.00,169.95,291115,,,A*72
$GPGGA,215620.000,4902.0215,N,12303.3741,W,1,07,1.5,12.8,M,-16.9,M,,0000*5C
$GPGSA,M,3,14,11,08,32,18,01,24,,,,,,2.8,1.5,2.4*34
$GPRMC,215620.000,A,4902.0215,N,12303.3741,W,0.00,169.95,291115,,,A*78
$GPGGA,215621.000,4902.0215,N,12303.3741,W,1,07,1.5,12.8,M,-16.9,M,,0000*5D
$GPGSA,M,3,14,11,08,32,18,01,24,,,,,,2.8,1.5,2.4*34
$GPRMC,215621.000,A,4902.0215,N,12303.3741,W,0.00,169.95,291115,,,A*79
$GPGGA,215622.000,4902.0215,N,12303.3741,W,1,07,1.5,12.8,M,-16.9,M,,0000*5E
$GPGSA,M,3,14,11,08,32,18,01,24,,,,,,2.8,1.5,2.4*34
$GPRMC,215622.000,A,4902.0215,N,12303.3741,W,0.00,169.95,291115,,,A*7A
$GPGGA,215623.000,4902.0215,N,12303.3741,W,1,07,1.5,12.8,M,-16.9,M,,0000*5F
$GPGSA,M,3,14,11,08,32,18,01,24,,,,,,2.8,1.5,2.4*34
$GPGSV,3,1,12,14,76,131,20,11,33,300,24,08,31,251,21,32,29,272,32*7B
$GPGSV,3,2,12,18,24,089,19,01,22,309,29,24,19,044,23,10,35,085,32*79
$GPGSV,3,3,12,21,01,140,08,22,64,081,04,48,32,193,,04,49,297,*79
$GPRMC,215623.000,A,4902.0215,N,12303.3741,W,0.00,169.95,291115,,,A*7B
$GPGGA,215624.000,4902.0215,N,12303.3741,W,1,07,1.5,12.8,M,-16.9,M,,0000*58
$GPGSA,M,3,14,11,08,32,18,01,24,,,,,,2.8,1.5,2.4*34
$GPRMC,215624.000,A,4902.0215,N,12303.3741,W,0.00,169.95,291115,,,A*7C
$GPGGA,215625.000,4902.0215,N,12303.3741,W,1,07,1.5,12.8,M,-16.9,M,,0000*59
$GPGSA,M,3,14,11,08,32,18,01,24,,,,,,2.8,1.5,2.4*34
$GPRMC,215625.000,A,4902.0215,N,12303.3741,W,0.00,169.95,291115,,,A*7D
$GPGGA,215626.000,4902.0215,N,12303.3741,W,1,07,1.5,12.8,M,-16.9,M,,0000*5A
$GPGSA,M,3,14,11,08,32,18,01,24,,,,,,2.8,1.5,2.4*34
$GPRMC,215626.000,A,4902.0215,N,12303.3741,W,0.00,169.95,291115,,,A*7E
$GPGGA,215627.000,4902.0215,N,12303.3741,W,1,07,1.5,12.8,M,-16.9,M,,0000*5B
$GPGSA,M,3,14,11,08,32,18,01,24,,,,,,2.8,1.5,2.4*34
$GPRMC,215627.000,A,4902.0215,N,12303.3741,W,0.00,169.95,291115,,,A*7F
$GPGGA,215628.000,4902.0215,N,12303.3741,W,1,07,1.5,12.8,M,-16.9,M,,0000*54
$GPGSA,M,3,14,11,08,32,18,01,24,,,,,,2.8,1.5,2.4*34
$GPGSV,3,1,12,14,76,131,20,11,33,300,24,08,31,251,21,32,29,272,32*7B
$GPGSV,3,2,12,18,24,089,19,01,22,309,29,24,19,044,23,10,35,085,32*79
$GPGSV,3,3,12,21,01,140,07,22,64,081,04,28,01,330,22,46,26,149,*74
$GPRMC,215628.000,A,4902.0215,N,12303.3741,W,0.00,169.95,291115,,,A*70
$GPGGA,215629.000,4902.0215,N,12303.3741,W,1,07,1.5,12.8,M,-16.9,M,,0000*55
$GPGSA,M,3,14,11,08,32,18,01,24,,,,,,2.8,1.5,2.4*34
$GPRMC,215629.000,A,4902.0215,N,12303.3741,W,0.00,169.95,291115,,,A*71
$GPGGA,215630.000,4902.0215,N,12303.3741,W,1,07,1.5,12.8,M,-16.9,M,,0000*5D
$GPGSA,M,3,14,11,08,32,18,01,24,,,,,,2.8,1.5,2.4*34
$GPRMC,215630.000,A,4902.0215,N,12303.3741,W,0.00,169.95,291115,,,A*79
$GPGGA,215631.000,4902.0215,N,12303.3741,W,1,07,1.5,12.8,M,-16.9,M,,0000*5C
$GPGSA,M,3,14,11,08,32,18,01,24,,,,,,2.8,1.5,2.4*34
$GPRMC,215631.000,A,4902.0215,N,12303.3741,W,0.00,169.95,291115,,,A*78
$GPGGA,215632.000,4902.0215,N,12303.3741,W,1,07,1.5,12.8,M,-16.9,M,,0000*5F
$GPGSA,M,3,14,11,08,32,18,01,24,,,,,,2.8,1.5,2.4*34
$GPRMC,215632.000,A,4902.0215,N,12303.3741,W,0.00,169.95,291115,,,A*7B
$GPGGA,215633.000,4902.0215,N,12303.3741,W,1,07,1.5,12.8,M,-16.9,M,,0000*5E
$GPGSA,M,3,14,11,08,32,18,01,24,,,,,,2.8,1.5,2.4*34
$GPGSV,3,1,12,14,76,131,20,11,33,300,24,08,31,251,20,32,29,272,32*7A
$GPGSV,3,2,12,18,24,089,19,01,22,309,29,24,19,044,23,10,35,085,32*79
$GPGSV,3,3,12,21,01,140,05,46,26,149,,22,64,081,,04,49,297,*7C
$GPRMC,215633.000,A,4902.0215,N,12303.3741,W,0.00,169.95,291115,,,A*7A
$GPGGA,215634.000,4902.0215,N,12303.3741,W,1,07,1.5,12.8,M,-16.9,M,,0000*59
$GPGSA,M,3,14,11,08,32,18,01,24,,,,,,2.8,1.5,2.4*34
$GPRMC,215634.000,A,4902.0215,N,12303.3741,W,0.00,169.95,291115,,,A*7D
$GPGGA,215635.000,4902.0215,N,12303.3741,W,1,07,1.5,12.8,M,-16.9,M,,0000*58
$GPGSA,M,3,14,11,08,32,18,01,24,,,,,,2.8,1.5,2.4*34
$GPRMC,215635.000,A,4902.0215,N,12303.3741,W,0.00,169.95,291115,,,A*7C
$GPGGA,215636.000,4902.0215,N,12303.3741,W,1,07,1.5,12.8,M,-16.9,M,,0000*5B
$GPGSA,M,3,14,11,08,32,18,01,24,,,,,,2.8,1.5,2.4*34
$GPRMC,215636.000,A,4902.0215,N,12303.3741,W,0.00,169.95,291115,,,A*7F
$GPGGA,215637.000,4902.0215,N,12303.3741,W,1,07,1.4,12.8,M,-16.9,M,,0000*5B
$GPGSA,M,3,14,11,08,32,18,01,24,,,,,,2.8,1.4,2.4*35
$GPRMC,215637.000,A,4902.0215,N,12303.3741,W,0.00,169.95,291115,,,A*7E
$GPGGA,215638.000,4902.0215,N,12303.3741,W,1,07,1.4,12.8,M,-16.9,M,,0000*54
$GPGSA,M,3,14,11,08,32,18,01,24,,,,,,2.8,1.4,2.4*35
$GPGSV,3,1,12,14,76,131,20,11,33,300,24,08,31,251,20,32,29,272,32*7A
$GPGSV,3,2,12,18,24,089,19,01,22,309,29,24,19,044,23,10,35,085,31*7A
$GPGSV,3,3,12,21,01,140,07,46,26,149,,22,64,081,,04,49,297,*7E
$GPRMC,215638.000,A,4902.0215,N,12303.3741,W,0.00,169.95,291115,,,A*71
$GPGGA,215639.000,4902.0215,N,12303.3741,W,1,07,1.4,12.8,M,-16.9,M,,0000*55
$GPGSA,M,3,14,11,08,32,18,01,24,,,,,,2.8,1.4,2.4*35
$GPRMC,215639.000,A,4902.0215,N,12303.3741,W,0.00,169.95,291115,,,A*70
$GPGGA,215640.000,4902.0215,N,12303.3741,W,1,07,1.4,12.8,M,-16.9,M,,0000*5B
$GPGSA,M,3,14,11,08,32,18,01,24,,,,,,2.8,1.4,2.4*35
$GPRMC,215640.000,A,4902.0215,N,12303.3741,W,0.00,169.95,291115,,,A*7E
$GPGGA,215641.000,4902.0215,N,12303.3741,W,1,07,1.4,12.8,M,-16.9,M,,0000*5A
$GPGSA,M,3,14,11,08,32,18,01,24,,,,,,2.8,1.4,2.4*35
$GPRMC,215641.000,A,4902.0215,N,12303.3741,W,0.00,169.95,291115,,,A*7F
$GPGGA,215642.000,4902.0215,N,12303.3741,W,1,07,1.4,12.8,M,-16.9,M,,0000*59
$GPGSA,M,3,14,11,08,32,18,01,24,,,,,,2.8,1.4,2.4*35
$GPRMC,215642.000,A,4902.0215,N,12303.3741,W,0.00,169.95,291115,,,A*7C
$GPGGA,215643.000,4902.0215,N,12303.3741,W,1,07,1.4,12.8,M,-16.9,M,,0000*58
$GPGSA,M,3,14,11,08,32,18,01,24,,,,,,2.8,1.4,2.4*35
$GPGSV,3,1,12,14,76,131,19,11,33,300,24,08,31,251,19,32,29,272,32*7A
$GPGSV,3,2,12,18,24,089,19,01,22,309,29,24,19,044,22,10,35,085,31*7B
$GPGSV,3,3,12,21,01,140,07,22,64,081,17,46,26,149,,04,49,297,*78
$GPRMC,215643.000,A,4902.0215,N,12303.3741,W,0.00,169.95,291115,,,A*7D
$GPGGA,215644.000,4902.0215,N,12303.3741,W,1,07,1.4,12.8,M,-16.9,M,,0000*5F
$GPGSA,M,3,14,11,08,32,18,01,24,,,,,,2.8,1.4,2.4*35
$GPRMC,215644.000,A,4902.0215,N,12303.3741,W,0.00,169.95,291115,,,A*7A
$GPGGA,215645.000,4902.0215,N,12303.3741,W,1,07,1.4,12.8,M,-16.9,M,,0000*5E
$GPGSA,M,3,14,11,08,32,18,01,24,,,,,,2.8,1.4,2.4*35
$GPRMC,215645.000,A,4902.0215,N,12303.3741,W,0.00,169.95,291115,,,A*7B
$GPGGA,215646.000,4902.0215,N,12303.3741,W,1,06,1.9,12.8,M,-16.9,M,,0000*51
$GPGSA,M,3,14,11,32,18,01,24,,,,,,,3.3,1.9,2.7*39
$GPRMC,215646.000,A,4902.0215,N,12303.3741,W,0.00,169.95,291115,,,A*78
$GPGGA,215647.000,4902.0215,N,12303.3741,W,1,06,1.9,12.8,M,-16.9,M,,0000*50
$GPGSA,M,3,14,11,32,18,01,24,,,,,,,3.3,1.9,2.7*39
$GPRMC,215647.000,A,4902.0215,N,12303.3741,W,0.00,169.95,291115,,,A*79
$GPGGA,215648.000,4902.0215,N,12303.3741,W,1,06,1.9,12.8,M,-16.9,M,,0000*5F
$GPGSA,M,3,14,11,32,18,01,24,,,,,,,3.3,1.9,2.7*39
$GPGSV,3,1,12,14,76,131,20,11,33,300,24,32,29,272,32,18,24,089,19*72
$GPGSV,3,2,12,01,22,309,29,24,19,044,22,08,31,251,14,10,35,085,31*74
$GPGSV,3,3,12,21,01,140,07,46,26,149,,22,64,081,,04,49,297,*7E
$GPRMC,215648.000,A,4902.0215,N,12303.3741,W,0.00,169.95,291115,,,A*76
$GPGGA,215649.000,4902.0215,N,12303.3741,W,1,07,1.4,12.8,M,-16.9,M,,0000*52
$GPGSA,M,3,14,11,08,32,18,01,24,,,,,,2.8,1.4,2.4*35
$GPRMC,215649.000,A,4902.0215,N,12303.3741,W,0.00,169.95,291115,,,A*77
$GPGGA,215650.000,4902.0215,N,12303.3741,W,1,07,1.4,12.8,M,-16.9,M,,0000*5A
$GPGSA,M,3,14,11,08,32,18,01,24,,,,,,2.8,1.4,2.4*35
$GPRMC,215650.000,A,4902.0215,N,12303.3741,W,0.00,169.95,291115,,,A*7F
$GPGGA,215651.000,4902.0215,N,12303.3741,W,1,07,1.4,12.8,M,-16.9,M,,0000*5B
$GPGSA,M,3,14,11,08,32,18,01,24,,,,,,2.8,1.4,2.4*35
$GPRMC,215651.000,A,4902.0215,N,12303.3741,W,0.00,169.95,291115,,,A*7E
$GPGGA,215652.000,4902.0215,N,12303.3741,W,1,07,1.4,12.8,M,-16.9,M,,0000*58
$GPGSA,M,3,14,11,08,32,18,01,24,,,,,,2.8,1.4,2.4*35
$GPRMC,215652.000,A,4902.0215,N,12303.3741,W,0.00,169.95,291115,,,A*7D
$GPGGA,215653.000,4902.0215,N,12303.3741,W,1,07,1.4,12.8,M,-16.9,M,,0000*59
$GPGSA,M,3,14,11,08,32,18,01,24,,,,,,2.8,1.4,2.4*35
$GPGSV,3,1,12,14,76,131,20,11,33,300,25,08,31,251,15,32,29,272,33*7C
$GPGSV,3,2,12,18,24,089,18,01,22,309,29,24,19,044,22,10,35,085,31*7A
$GPGSV,3,3,12,21,01,140,05,46,26,149,,22,64,081,,04,49,297,*7C
$GPRMC,215653.000,A,4902.0215,N,12303.3741,W,0.00,169.95,291115,,,A*7C
$GPGGA,215654.000,4902.0215,N,12303.3741,W,1,07,1.4,12.8,M,-16.9,M,,0000*5E
$GPGSA,M,3,14,11,08,32,18,01,24,,,,,,2.8,1.4,2.4*35
$GPRMC,215654.000,A,4902.0215,N,12303.3741,W,0.00,169.95,291115,,,A*7B
$GPGGA,215655.000,4902.0215,N,12303.3741,W,1,07,1.4,12.8,M,-16.9,M,,0000*5F
$GPGSA,M,3,14,11,08,32,18,01,24,,,,,,2.8,1.4,2.4*35
$GPRMC,215655.000,A,4902.0215,N,12303.3741,W,0.00,169.95,291115,,,A*7A
$GPGGA,215656.000,4902.0215,N,12303.3741,W,1,07,1.4,12.8,M,-16.9,M,,0000*5C
$GPGSA,M,3,14,11,08,32,18,01,24,,,,,,2.8,1.4,2.4*35
$GPRMC,215656.000,A,4902.0215,N,12303.3741,W,0.00,169.95,291115,,,A*79
$GPGGA,215657.000,4902.0215,N,12303.3741,W,1,07,1.4,12.8,M,-16.9,M,,0000*5D
$GPGSA,M,3,14,11,08,32,18,01,24,,,,,,2.8,1.4,2.4*35
$GPRMC,215657.000,A,4902.0215,N,12303.3741,W,0.00,169.95,291115,,,A*78
$GPGGA,215658.000,4902.0215,N,12303.3741,W,1,07,1.4,12.8,M,-16.9,M,,0000*52
$GPGSA,M,3,14,11,08,32,18,01,24,,,,,,2.8,1.4,2.4*35
$GPGSV,3,1,12,14,76,131,19,11,33,300,25,08,31,251,14,32,29,272,33*77
$GPGSV,3,2,12,18,24,089,18,01,22,309,29,24,19,044,21,10,35,085,31*79
$GPGSV,3,3,12,21,01,140,11,27,19,217,16,48,32,193,,22,64,081,*7E
$GPRMC,215658.000,A,4902.0215,N,12303.3741,W,0.00,169.95,291115,,,A*77
$GPGGA,215659.000,4902.0215,N,12303.3741,W,1,07,1.4,12.8,M,-16.9,M,,0000*53
$GPGSA,M,3,14,11,08,32,18,01,24,,,,,,2.8,1.4,2.4*35
$GPRMC,215659.000,A,4902.0215,N,12303.3741,W,0.00,169.95,291115,,,A*76
$GPGGA,215700.000,4902.0215,N,12303.3741,W,1,07,1.4,12.8,M,-16.9,M,,0000*5E
$GPGSA,M,3,14,11,08,32,18,01,24,,,,,,2.8,1.4,2.4*35
$GPRMC,215700.000,A,4902.0215,N,12303.3741,W,0.00,169.95,291115,,,A*7B
$GPGGA,215701.000,4902.0215,N,12303.3741,W,1,07,1.4,12.8,M,-16.9,M,,0000*5F
$GPGSA,M,3,14,11,08,32,18,01,24,,,,,,2.8,1.4,2.4*35
$GPRMC,215701.000,A,4902.0215,N,12303.3741,W,0.00,169.95,291115,,,A*7A
$GPGGA,215702.000,4902.0215,N,12303.3741,W,1,07,1.4,12.8,M,-16.9,M,,0000*5C
$GPGSA,M,3,14,11,08,32,18,01,24,,,,,,2.8,1.4,2.4*35
$GPRMC,215702.000,A,4902.0215,N,12303.3741,W,0.00,169.95,291115,,,A*79
$GPGGA,215703.000,4902.0215,N,12303.3741,W,1,07,1.4,12.8,M,-16.9,M,,0000*5D
$GPGSA,M,3,14,11,08,32,18,01,24,,,,,,2.8,1.4,2.4*35
$GPGSV,3,1,12,14,76,131,19,11,33,300,25,08,31,251,15,32,29,272,33*76
$GPGSV,3,2,12,18,24,089,18,01,22,309,29,24,19,044,21,10,35,085,31*79
$GPGSV,3,3,12,19,10,329,18,21,01,140,11,27,19,217,12,48,32,193,*79
$GPRMC,215703.000,A,4902.0215,N,12303.3741,W,0.00,169.95,291115,,,A*78
$GPGGA,215704.000,4902.0215,N,12303.3741,W,1,07,1.4,12.8,M,-16.9,M,,0000*5A
$GPGSA,M,3,14,11,08,32,18,01,24,,,,,,2.8,1.4,2.4*35
$GPRMC,215704.000,A,4902.0215,N,12303.3741,W,0.00,169.95,291115,,,A*7F
$GPGGA,215705.000,4902.0215,N,12303.3741,W,1,07,1.4,12.8,M,-16.9,M,,0000*5B
$GPGSA,M,3,14,11,08,32,18,01,24,,,,,,2.8,1.4,2.4*35
$GPRMC,215705.000,A,4902.0215,N,12303.3741,W,0.00,169.95,291115,,,A*7E
$GPGGA,215706.000,4902.0215,N,12303.3741,W,1,07,1.4,12.7,M,-16.9,M,,0000*57
$GPGSA,M,3,14,11,08,32,18,01,24,,,,,,2.8,1.4,2.4*35
$GPRMC,215706.000,A,4902.0215,N,12303.3741,W,0.00,169.95,291115,,,A*7D
$GPGGA,215707.000,4902.0215,N,12303.3741,W,1,07,1.4,12.7,M,-16.9,M,,0000*56
$GPGSA,M,3,14,11,08,32,18,01,24,,,,,,2.8,1.4,2.4*35
$GPRMC,215707.000,A,4902.0215,N,12303.3741,W,0.00,169.95,291115,,,A*7C
$GPGGA,215708.000,4902.0215,N,12303.3741,W,1,07,1.4,12.7,M,-16.9,M,,0000*59
$GPGSA,M,3,14,11,08,32,18,01,24,,,,,,2.8,1.4,2.3*32
$GPGSV,3,1,12,14,76,131,19,11,33,300,25,08,31,251,16,32,29,272,33*75
$GPGSV,3,2,12,18,24,089,17,01,22,309,29,24,19,044,21,10,35,085,31*76
$GPGSV,3,3,12,21,01,140,10,22,64,081,19,27,19,217,13,48,32,193,*72
$GPRMC,215708.000,A,4902.0215,N,12303.3741,W,0.00,169.95,291115,,,A*73
$GPGGA,215709.000,4902.0215,N,12303.3741,W,1,07,1.4,12.7,M,-16.9,M,,0000*58
$GPGSA,M,3,14,11,08,32,18,01,24,,,,,,2.8,1.4,2.3*32
$GPRMC,215709.000,A,4902.0215,N,12303.3741,W,0.00,169.95,291115,,,A*72
$GPGGA,215710.000,4902.0215,N,12303.3741,W,1,07,1.4,12.7,M,-16.9,M,,0000*50
$GPGSA,M,3,14,11,08,32,18,01,24,,,,,,2.8,1.4,2.3*32
$GPRMC,215710.000,A,4902.0215,N,12303.3741,W,0.00,169.95,291115,,,A*7A
$GPGGA,215711.000,4902.0215,N,12303.3741,W,1,07,1.4,12.7,M,-16.9,M,,0000*51
$GPGSA,M,3,14,11,08,32,18,01,24,,,,,,2.8,1.4,2.3*32
$GPRMC,215711.000,A,4902.0215,N,12303.3741,W,0.00,169.95,291115,,,A*7B
$GPGGA,215712.000,4902.0215,N,12303.3741,W,1,07,1.4,12.7,M,-16.9,M,,0000*52
$GPGSA,M,3,14,11,08,32,18,01,24,,,,,,2.8,1.4,2.3*32
$GPRMC,215712.000,A,4902.0215,N,12303.3741,W,0.00,169.95,291115,,,A*78
$GPGGA,215713.000,4902.0215,N,12303.3741,W,1,07,1.4,12.7,M,-16.9,M,,0000*53
$GPGSA,M,3,14,11,08,32,18,01,24,,,,,,2.8,1.4,2.3*32
$GPGSV,3,1,12,14,76,131,18,11,33,300,26,08,31,251,16,32,29,272,33*77
$GPGSV,3,2,12,18,24,089,17,01,22,309,29,24,19,044,21,10,35,085,31*76
$GPGSV,3,3,12,21,01,140,10,27,19,217,13,48,32,193,,22,64,081,*7A
$GPRMC,215713.000,A,4902.0215,N,12303.3741,W,0.00,169.95,291115,,,A*79
$GPGGA,215714.000,4902.0215,N,12303.3741,W,1,07,1.4,12.7,M,-16.9,M,,0000*54
$GPGSA,M,3,14,11,08,32,18,01,24,,,,,,2.8,1.4,2.3*32
$GPRMC,215714.000,A,4902.0215,N,12303.3741,W,0.00,169.95,291115,,,A*7E
$GPGGA,215715.000,4902.0215,N,12303.3741,W,1,07,1.4,12.7,M,-16.9,M,,0000*55
$GPGSA,M,3,14,11,08,32,18,01,24,,,,,,2.8,1.4,2.3*32
$GPRMC,215715.000,A,4902.0215,N,12303.3741,W,0.00,169.95,291115,,,A*7F
$GPGGA,215716.000,4902.0215,N,12303.3741,W,1,07,1.4,12.7,M,-16.9,M,,0000*56
$GPGSA,M,3,14,11,08,32,18,01,24,,,,,,2.8,1.4,2.3*32
$GPRMC,215716.000,A,4902.0215,N,12303.3741,W,0.00,169.95,291115,,,A*7C
$GPGGA,215717.000,4902.0215,N,12303.3741,W,1,07,1.4,12.7,M,-16.9,M,,0000*57
$GPGSA,M,3,14,11,08,32,18,01,24,,,,,,2.7,1.4,2.3*3D
$GPRMC,215717.000,A,4902.0215,N,12303.3741,W,0.00,169.95,291115,,,A*7D
$GPGGA,215718.000,4902.0215,N,12303.3741,W,1,07,1.4,12.7,M,-16.9,M,,0000*58
$GPGSA,M,3,14,11,08,32,18,01,24,,,,,,2.7,1.4,2.3*3D
$GPGSV,3,1,12,14,76,131,18,11,33,300,26,08,31,251,16,32,29,272,33*77
$GPGSV,3,2,12,18,24,089,17,01,22,309,29,24,19,044,21,10,35,085,31*76
$GPGSV,3,3,12,21,01,140,08,27,19,217,13,48,32,193,,22,64,081,*73
$GPRMC,215718.000,A,4902.0215,N,12303.3741,W,0.00,169.95,291115,,,A*72
$GPGGA,215719.000,4902.0215,N,12303.3741,W,1,07,1.4,12.7,M,-16.9,M,,0000*59
$GPGSA,M,3,14,11,08,32,18,01,24,,,,,,2.7,1.4,2.3*3D
$GPRMC,215719.000,A,4902.0215,N,12303.3741,W,0.00,169.95,291115,,,A*73
$GPGGA,215720.000,4902.0215,N,12303.3741,W,1,07,1.4,12.7,M,-16.9,M,,0000*53
$GPGSA,M,3,14,11,08,32,18,01,24,,,,,,2.7,1.4,2.3*3D
$GPRMC,215720.000,A,4902.0215,N,12303.3741,W,0.00,169.95,291115,,,A*79
$GPGGA,215721.000,4902.0215,N,12303.3741,W,1,07,1.4,12.7,M,-16.9,M,,0000*52
$GPGSA,M,3,14,11,08,32,18,01,24,,,,,,2.7,1.4,2.3*3D
$GPRMC,215721.000,A,4902.0215,N,12303.3741,W,0.00,169.95,291115,,,A*78
$GPGGA,215722.000,4902.0215,N,12303.3741,W,1,07,1.4,12.7,M,-16.9,M,,0000*51
$GPGSA,M,3,14,11,08,32,18,01,24,,,,,,2.7,1.4,2.3*3D
$GPRMC,215722.000,A,4902.0215,N,12303.3741,W,0.00,169.95,291115,,,A*7B
$GPGGA,215723.000,4902.0214,N,12303.3741,W,1,07,1.4,12.7,M,-16.9,M,,0000*51
$GPGSA,M,3,14,11,08,32,18,01,24,,,,,,2.7,1.4,2.3*3D
$GPGSV,3,1,12,14,76,131,18,11,33,300,26,08,31,251,15,32,29,272,33*74
$GPGSV,3,2,12,18,24,089,17,01,22,309,29,24,19,044,21,10,35,085,31*76
$GPGSV,3,3,12,21,01,140,07,27,19,217,12,28,01,330,22,48,32,193,*7D
$GPRMC,215723.000,A,4902.0214,N,12303.3741,W,0.00,169.95,291115,,,A*7B
$GPGGA,215724.000,4902.0214,N,12303.3741,W,1,07,1.4,12.7,M,-16.9,M,,0000*56
$GPGSA,M,3,14,11,08,32,18,01,24,,,,,,2.7,1.4,2.3*3D
$GPRMC,215724.000,A,4902.0214,N,12303.3741,W,0.00,169.95,291115,,,A*7C
$GPGGA,215725.000,4902.0214,N,12303.3741,W,1,07,1.4,12.7,M,-16.9,M,,0000*57
$GPGSA,M,3,14,11,08,32,18,01,24,,,,,,2.7,1.4,2.3*3D
$GPRMC,215725.000,A,4902.0214,N,12303.3741,W,0.00,169.95,291115,,,A*7D
$GPGGA,215726.000,4902.0214,N,12303.3741,W,1,06,1.9,12.7,M,-16.9,M,,0000*58
$GPGSA,M,3,14,11,08,32,01,24,,,,,,,3.4,1.9,2.9*31
$GPRMC,215726.000,A,4902.0214,N,12303.3741,W,0.00,169.95,291115,,,A*7E
$GPGGA,215727.000,4902.0214,N,12303.3741,W,1,07,1.4,12.7,M,-16.9,M,,0000*55
$GPGSA,M,3,14,11,08,32,18,01,24,,,,,,2.7,1.4,2.3*3D
$GPRMC,215727.000,A,4902.0214,N,12303.3741,W,0.00,169.95,291115,,,A*7F
$GPGGA,215728.000,4902.0214,N,12303.3741,W,1,07,1.4,12.7,M,-16.9,M,,0000*5A
$GPGSA,M,3,14,11,08,32,18,01,24,,,,,,2.7,1.4,2.3*3D
$GPGSV,3,1,12,14,76,131,18,11,33,300,26,08,31,251,15,32,29,272,33*74
$GPGSV,3,2,12,18,24,089,18,01,22,309,28,24,19,044,21,10,35,085,30*79
$GPGSV,3,3,12,27,19,217,12,51,31,159,,22,64,081,,04,49,297,*75
$GPRMC,215728.000,A,4902.0214,N,12303.3741,W,0.00,169.95,291115,,,A*70
$GPGGA,215729.000,4902.0214,N,12303.3741,W,1,07,1.4,12.7,M,-16.9,M,,0000*5B
$GPGSA,M,3,14,11,08,32,18,01,24,,,,,,2.7,1.4,2.3*3D
$GPRMC,215729.000,A,4902.0214,N,12303.3741,W,0.00,169.95,291115,,,A*71
$GPGGA,215730.000,4902.0214,N,12303.3741,W,1,07,1.4,12.7,M,-16.9,M,,0000*53
$GPGSA,M,3,14,11,08,32,18,01,24,,,,,,2.7,1.4,2.3*3D
$GPRMC,215730.000,A,4902.0214,N,12303.3741,W,0.00,169.95,291115,,,A*79
$GPGGA,215731.000,4902.0214,N,12303.3741,W,1,07,1.4,12.7,M,-16.9,M,,0000*52
$GPGSA,M,3,14,11,08,32,18,01,24,,,,,,2.7,1.4,2.3*3D
$GPRMC,215731.000,A,4902.0214,N,12303.3741,W,0.00,169.95,291115,,,A*78
$GPGGA,215732.000,4902.0214,N,12303.3741,W,1,07,1.4,12.7,M,-16.9,M,,0000*51
$GPGSA,M,3,14,11,08,32,18,01,24,,,,,,2.7,1.4,2.3*3D
$GPRMC,215732.000,A,4902.0214,N,12303.3741,W,0.00,169.95,291115,,,A*7B
$GPGGA,215733.000,4902.0214,N,12303.3741,W,1,07,1.4,12.7,M,-16.9,M,,0000*50
$GPGSA,M,3,14,11,08,32,18,01,24,,,,,,2.7,1.4,2.3*3D
$GPGSV,3,1,12,14,76,131,18,11,33,300,26,08,31,251,15,32,29,272,33*74
$GPGSV,3,2,12,18,24,089,18,01,22,309,28,24,19,044,20,10,35,085,30*78
$GPGSV,3,3,12,27,19,217,11,51,31,159,,22,64,081,,04,49,297,*76
$GPRMC,215733.000,A,4902.0214,N,12303.3741,W,0.00,169.95,291115,,,A*7A
$GPGGA,215734.000,4902.0214,N,12303.3741,W,1,07,1.4,12.7,M,-16.9,M,,0000*57
$GPGSA,M,3,14,11,08,32,18,01,24,,,,,,2.7,1.4,2.3*3D
$GPRMC,215734.000,A,4902.0214,N,12303.3741,W,0.00,169.95,291115,,,A*7D
$GPGGA,215735.000,4902.0214,N,12303.3741,W,1,07,1.4,12.6,M,-16.9,M,,0000*57
$GPGSA,M,3,14,11,08,32,18,01,24,,,,,,2.7,1.4,2.3*3D
$GPRMC,215735.000,A,4902.0214,N,12303.3741,W,0.00,169.95,291115,,,A*7C
$GPGGA,215736.000,4902.0214,N,12303.3741,W,1,07,1.4,12.6,M,-16.9,M,,0000*54
$GPGSA,M,3,14,11,08,32,18,01,24,,,,,,2.7,1.4,2.3*3D
$GPRMC,215736.000,A,4902.0214,N,12303.3741,W,0.00,169.95,291115,,,A*7F
$GPGGA,215737.000,4902.0214,N,12303.3741,W,1,07,1.4,12.6,M,-16.9,M,,0000*55
$GPGSA,M,3,14,11,08,32,18,01,24,,,,,,2.7,1.4,2.3*3D
$GPRMC,215737.000,A,4902.0214,N,12303.3741,W,0.00,169.95,291115,,,A*7E
$GPGGA,215738.000,4902.0214,N,12303.3741,W,1,07,1.4,12.6,M,-16.9,M,,0000*5A
$GPGSA,M,3,14,11,08,32,18,01,24,,,,,,2.7,1.4,2.3*3D
$GPGSV,3,1,12,14,76,131,19,11,33,300,26,08,31,251,15,32,29,272,33*75
$GPGSV,3,2,12,18,24,089,17,01,22,309,28,24,19,044,19,10,35,085,25*79
$GPGSV,3,3,12,27,19,217,16,51,31,159,,22,64,081,,04,49,297,*71
$GPRMC,215738.000,A,4902.0214,N,12303.3741,W,0.00,169.95,291115,,,A*71
$GPGGA,215739.000,4902.0214,N,12303.3741,W,1,07,1.4,12.6,M,-16.9,M,,0000*5B
$GPGSA,M,3,14,11,08,32,18,01,24,,,,,,2.7,1.4,2.3*3D
$GPRMC,215739.000,A,4902.0214,N,12303.3741,W,0.00,169.95,291115,,,A*70
$GPGGA,215740.000,4902.0214,N,12303.3742,W,1,06,1.7,12.7,M,-16.9,M,,0000*55
$GPGSA,M,3,14,11,08,32,18,01,,,,,,,2.9,1.7,2.4*31
$GPRMC,215740.000,A,4902.0214,N,12303.3742,W,0.19,169.95,291115,,,A*75
$GPGGA,215741.000,4902.0213,N,12303.3742,W,1,05,2.6,12.8,M,-16.9,M,,0000*5D
$GPGSA,M,3,14,11,32,18,01,,,,,,,,3.8,2.6,2.7*38
$GPRMC,215741.000,A,4902.0213,N,12303.3742,W,0.22,169.95,291115,,,A*7B
$GPGGA,215742.000,4902.0213,N,12303.3742,W,1,05,2.6,12.9,M,-16.9,M,,0000*5F
$GPGSA,M,3,14,11,32,18,01,,,,,,,,3.8,2.6,2.7*38
$GPRMC,215742.000,A,4902.0213,N,12303.3742,W,0.08,169.95,291115,,,A*70
$GPGGA,215743.000,4902.0213,N,12303.3742,W,1,05,2.6,12.8,M,-16.9,M,,0000*5F
$GPGSA,M,3,14,11,32,18,01,,,,,,,,3.8,2.6,2.7*38
$GPGSV,3,1,12,14,76,131,18,11,33,300,19,32,29,272,27,18,24,089,17*7D
$GPGSV,3,2,12,01,22,309,27,08,31,251,04,10,35,085,14,22,64,081,18*70
$GPGSV,3,3,12,24,19,044,10,27,19,217,07,28,01,330,17,51,31,159,*7D
$GPRMC,215743.000,A,4902.0213,N,12303.3742,W,0.00,169.95,291115,,,A*79
$GPGGA,215744.000,4902.0213,N,12303.3742,W,1,06,2.4,12.8,M,-16.9,M,,0000*59
$GPGSA,M,3,14,22,11,32,18,01,,,,,,,3.2,2.4,2.2*35
$GPRMC,215744.000,A,4902.0213,N,12303.3742,W,0.00,169.95,291115,,,A*7E
$GPGGA,215745.000,4902.0213,N,12303.3742,W,1,06,2.4,12.8,M,-16.9,M,,0000*58
$GPGSA,M,3,14,22,11,32,18,01,,,,,,,3.2,2.4,2.2*35
$GPRMC,215745.000,A,4902.0213,N,12303.3742,W,0.00,169.95,291115,,,A*7F
$GPGGA,215746.000,4902.0213,N,12303.3742,W,1,06,2.4,12.3,M,-16.9,M,,0000*50
$GPGSA,M,3,14,22,11,32,18,01,,,,,,,3.2,2.4,2.2*35
$GPRMC,215746.000,A,4902.0213,N,12303.3742,W,0.16,169.95,291115,,,A*7B
$GPGGA,215747.000,4902.0213,N,12303.3742,W,1,06,2.4,12.1,M,-16.9,M,,0000*53
$GPGSA,M,3,14,22,11,32,18,01,,,,,,,3.2,2.4,2.2*35
$GPRMC,215747.000,A,4902.0213,N,12303.3742,W,0.12,169.95,291115,,,A*7E
$GPGGA,215748.000,4902.0212,N,12303.3741,W,1,06,2.4,12.1,M,-16.9,M,,0000*5E
$GPGSA,M,3,14,22,11,32,18,01,,,,,,,3.2,2.4,2.2*35
$GPGSV,3,1,12,14,76,131,17,22,64,081,22,11,33,300,18,32,29,272,28*7F
$GPGSV,3,2,12,18,24,089,16,01,22,309,26,08,31,251,04,10,35,085,16*78
$GPGSV,3,3,12,24,19,044,08,27,19,217,04,28,01,330,13,51,31,159,*73
$GPRMC,215748.000,A,4902.0212,N,12303.3741,W,0.15,169.95,291115,,,A*74
$GPGGA,215749.000,4902.0212,N,12303.3743,W,1,06,2.4,11.9,M,-16.9,M,,0000*56
$GPGSA,M,3,14,22,11,32,18,01,,,,,,,3.2,2.4,2.2*35
$GPRMC,215749.000,A,4902.0212,N,12303.3743,W,0.19,169.95,291115,,,A*7B
$GPGGA,215750.000,4902.0213,N,12303.3745,W,1,06,2.4,11.5,M,-16.9,M,,0000*55
$GPGSA,M,3,14,22,11,32,18,01,,,,,,,3.2,2.4,2.2*35
$GPRMC,215750.000,A,4902.0213,N,12303.3745,W,0.50,169.95,291115,,,A*79
$GPGGA,215751.000,4902.0212,N,12303.3747,W,1,06,2.4,11.3,M,-16.9,M,,0000*51
$GPGSA,M,3,14,22,11,32,18,01,,,,,,,3.2,2.4,2.2*35
$GPRMC,215751.000,A,4902.0212,N,12303.3747,W,0.29,169.95,291115,,,A*75
$GPGGA,215752.000,4902.0212,N,12303.3748,W,1,06,2.4,11.0,M,-16.9,M,,0000*5E
$GPGSA,M,3,14,22,11,32,18,01,,,,,,,3.2,2.4,2.2*35
$GPRMC,215752.000,A,4902.0212,N,12303.3748,W,0.06,169.95,291115,,,A*74
$GPGGA,215753.000,4902.0211,N,12303.3748,W,1,06,2.4,10.6,M,-16.9,M,,0000*5B
$GPGSA,M,3,14,22,11,32,18,01,,,,,,,3.2,2.4,2.2*35
$GPGSV,3,1,12,14,76,131,16,22,64,081,22,11,33,300,18,32,29,272,28*7E
$GPGSV,3,2,12,18,24,089,13,01,22,309,26,08,31,251,04,10,35,085,17*7C
$GPGSV,3,3,12,21,01,140,13,24,19,044,06,28,01,330,13,51,31,159,*75
$GPRMC,215753.000,A,4902.0211,N,12303.3748,W,0.33,169.95,291115,,,A*70
$GPGGA,215754.000,4902.0208,N,12303.3747,W,1,06,2.4,10.2,M,-16.9,M,,0000*5F
$GPGSA,M,3,14,22,11,32,18,01,,,,,,,3.3,2.4,2.2*34
$GPRMC,215754.000,A,4902.0208,N,12303.3747,W,0.65,169.95,291115,,,A*73
$GPGGA,215755.000,4902.0206,N,12303.3746,W,1,06,2.4,9.9,M,-16.9,M,,0000*62
$GPGSA,M,3,14,22,11,32,18,01,,,,,,,3.3,2.4,2.2*34
$GPRMC,215755.000,A,4902.0206,N,12303.3746,W,0.73,169.95,291115,,,A*7A
$GPGGA,215756.000,4902.0204,N,12303.3744,W,1,06,2.4,9.8,M,-16.9,M,,0000*60
$GPGSA,M,3,14,22,11,32,18,01,,,,,,,3.3,2.4,2.2*34
$GPRMC,215756.000,A,4902.0204,N,12303.3744,W,0.75,169.95,291115,,,A*7F
$GPGGA,215757.000,4902.0204,N,12303.3744,W,1,06,2.4,9.8,M,-16.9,M,,0000*61
$GPGSA,M,3,14,22,11,32,18,01,,,,,,,3.3,2.4,2.2*34
$GPRMC,215757.000,A,4902.0204,N,12303.3744,W,0.50,169.95,291115,,,A*79
$GPGGA,215758.000,4902.0202,N,12303.3742,W,1,06,2.4,9.8,M,-16.9,M,,0000*6E
$GPGSA,M,3,14,22,11,32,18,01,,,,,,,3.3,2.4,2.2*34
$GPGSV,3,1,12,14,76,131,16,22,64,081,22,11,33,300,18,32,29,272,28*7E
$GPGSV,3,2,12,18,24,089,13,01,22,309,25,10,35,085,18,24,19,044,04*72
$GPGSV,3,3,12,27,19,217,16,28,01,330,12,46,26,149,,04,49,297,*73
$GPRMC,215758.000,A,4902.0202,N,12303.3742,W,0.40,169.95,291115,,,A*77
$GPGGA,215759.000,4902.0200,N,12303.3740,W,1,06,2.4,9.7,M,-16.9,M,,0000*60
$GPGSA,M,3,14,22,11,32,18,01,,,,,,,3.3,2.4,2.2*34
$GPRMC,215759.000,A,4902.0200,N,12303.3740,W,0.57,169.95,291115,,,A*70
$GPGGA,215800.000,4902.0199,N,12303.3739,W,1,06,2.4,9.5,M,-16.9,M,,0000*6C
$GPGSA,M,3,14,22,11,32,18,01,,,,,,,3.3,2.4,2.2*34
$GPRMC,215800.000,A,4902.0199,N,12303.3739,W,0.37,169.95,291115,,,A*78
$GPGGA,215801.000,4902.0200,N,12303.3739,W,1,06,2.4,9.2,M,-16.9,M,,0000*69
$GPGSA,M,3,14,22,11,32,18,01,,,,,,,3.3,2.4,2.2*34
$GPRMC,215801.000,A,4902.0200,N,12303.3739,W,0.11,169.95,291115,,,A*7E
$GPGGA,215802.000,4902.0198,N,12303.3739,W,1,05,4.3,9.0,M,-16.9,M,,0000*68
$GPGSA,M,3,14,22,11,32,01,,,,,,,,9.5,4.3,8.4*3C
$GPRMC,215802.000,A,4902.0198,N,12303.3739,W,0.36,169.95,291115,,,A*7A
$GPGGA,215803.000,4902.0195,N,12303.3737,W,1,05,4.3,8.7,M,-16.9,M,,0000*6C
$GPGSA,M,3,14,22,11,32,01,,,,,,,,9.5,4.3,8.4*3C
$GPGSV,3,1,12,14,76,131,15,22,64,081,22,11,33,300,18,32,29,272,28*7D
$GPGSV,3,2,12,01,22,309,25,10,35,085,18,18,24,089,11,21,01,140,13*7F
$GPGSV,3,3,12,24,19,044,04,46,26,149,,04,49,297,,08,31,251,*73
$GPRMC,215803.000,A,4902.0195,N,12303.3737,W,0.83,169.95,291115,,,A*76
$GPGGA,215804.000,4902.0196,N,12303.3734,W,1,05,4.3,8.4,M,-16.9,M,,0000*68
$GPGSA,M,3,14,22,11,32,01,,,,,,,,9.5,4.3,8.4*3C
$GPRMC,215804.000,A,4902.0196,N,12303.3734,W,0.73,169.95,291115,,,A*7E
$GPGGA,215805.000,4902.0198,N,12303.3735,W,1,05,4.3,8.0,M,-16.9,M,,0000*62
$GPGSA,M,3,14,22,11,32,01,,,,,,,,9.5,4.3,8.4*3C
$GPRMC,215805.000,A,4902.0198,N,12303.3735,W,0.23,169.95,291115,,,A*75
$GPGGA,215806.000,4902.0202,N,12303.3735,W,1,05,4.3,7.7,M,-16.9,M,,0000*69
$GPGSA,M,3,14,22,11,32,01,,,,,,,,9.5,4.3,8.4*3C
$GPRMC,215806.000,A,4902.0202,N,12303.3735,W,0.72,169.95,291115,,,A*72
$GPGGA,215807.000,4902.0202,N,12303.3734,W,1,05,4.3,7.4,M,-16.9,M,,0000*6A
$GPGSA,M,3,14,22,11,32,01,,,,,,,,9.4,4.3,8.4*3D
$GPRMC,215807.000,A,4902.0202,N,12303.3734,W,0.67,169.95,291115,,,A*76
$GPGGA,215808.000,4902.0202,N,12303.3733,W,1,05,4.3,7.2,M,-16.9,M,,0000*64
$GPGSA,M,3,14,22,11,32,01,,,,,,,,9.4,4.3,8.4*3D
$GPGSV,3,1,12,14,76,131,15,22,64,081,22,11,33,300,18,32,29,272,28*7D
$GPGSV,3,2,12,01,22,309,24,10,35,085,17,18,24,089,11,21,01,140,13*71
$GPGSV,3,3,12,24,19,044,04,27,19,217,16,46,26,149,,04,49,297,*71
$GPRMC,215808.000,A,4902.0202,N,12303.3733,W,0.50,169.95,291115,,,A*7A
$GPGGA,215809.000,4902.0199,N,12303.3732,W,1,05,4.3,7.1,M,-16.9,M,,0000*66
$GPGSA,M,3,14,22,11,32,01,,,,,,,,9.4,4.3,8.4*3D
$GPRMC,215809.000,A,4902.0199,N,12303.3732,W,0.44,169.95,291115,,,A*7E
$GPGGA,215810.000,4902.0198,N,12303.3731,W,1,05,4.3,7.0,M,-16.9,M,,0000*6D
$GPGSA,M,3,14,22,11,32,01,,,,,,,,9.4,4.3,8.4*3D
$GPRMC,215810.000,A,4902.0198,N,12303.3731,W,0.43,169.95,291115,,,A*73
$GPGGA,215811.000,4902.0194,N,12303.3732,W,1,05,4.3,6.9,M,-16.9,M,,0000*6B
$GPGSA,M,3,14,22,11,32,01,,,,,,,,9.4,4.3,8.4*3D
$GPRMC,215811.000,A,4902.0194,N,12303.3732,W,0.50,169.95,291115,,,A*7F
$GPGGA,215812.000,4902.0194,N,12303.3735,W,1,05,4.3,6.8,M,-16.9,M,,0000*6E
$GPGSA,M,3,14,22,11,32,01,,,,,,,,9.4,4.3,8.4*3D
$GPRMC,215812.000,A,4902.0194,N,12303.3735,W,0.43,169.95,291115,,,A*79
$GPGGA,215813.000,4902.0195,N,12303.3737,W,1,05,4.3,6.7,M,-16.9,M,,0000*63
$GPGSA,M,3,14,22,11,32,01,,,,,,,,9.4,4.3,8.4*3D
$GPGSV,3,1,12,14,76,131,15,22,64,081,21,11,33,300,18,32,29,272,28*7E
$GPGSV,3,2,12,01,22,309,24,10,35,085,17,18,24,089,10,46,26,149,*7F
$GPGSV,3,3,12,04,49,297,,08,31,251,,27,19,217,,24,19,044,*74
$GPRMC,215813.000,A,4902.0195,N,12303.3737,W,0.36,169.95,291115,,,A*79
$GPGGA,215814.000,4902.0195,N,12303.3737,W,1,05,4.3,6.6,M,-16.9,M,,0000*65
$GPGSA,M,3,14,22,11,32,01,,,,,,,,9.4,4.3,8.4*3D
$GPRMC,215814.000,A,4902.0195,N,12303.3737,W,0.21,169.95,291115,,,A*78
$GPGGA,215815.000,4902.0194,N,12303.3734,W,1,05,4.3,6.6,M,-16.9,M,,0000*66
$GPGSA,M,3,14,22,11,32,01,,,,,,,,9.4,4.3,8.4*3D
$GPRMC,215815.000,A,4902.0194,N,12303.3734,W,0.69,169.95,291115,,,A*77
$GPGGA,215816.000,4902.0193,N,12303.3730,W,1,05,4.3,6.6,M,-16.9,M,,0000*66
$GPGSA,M,3,14,22,11,32,01,,,,,,,,9.4,4.3,8.4*3D
$GPRMC,215816.000,A,4902.0193,N,12303.3730,W,1.09,169.95,291115,,,A*70
$GPGGA,215817.000,4902.0194,N,12303.3728,W,1,05,4.3,6.5,M,-16.9,M,,0000*6A
$GPGSA,M,3,14,22,11,32,01,,,,,,,,9.4,4.3,8.4*3D
$GPRMC,215817.000,A,4902.0194,N,12303.3728,W,0.79,169.95,291115,,,A*79
$GPGGA,215818.000,4902.0193,N,12303.3723,W,1,05,4.3,6.6,M,-16.9,M,,0000*6A
$GPGSA,M,3,14,22,11,32,01,,,,,,,,9.4,4.3,8.4*3D
$GPGSV,3,1,12,14,76,131,15,22,64,081,21,11,33,300,17,32,29,272,28*71
$GPGSV,3,2,12,01,22,309,24,10,35,085,17,18,24,089,08,21,01,140,13*79
$GPGSV,3,3,12,46,26,149,,04,49,297,,08,31,251,,27,19,217,*70
$GPRMC,215818.000,A,4902.0193,N,12303.3723,W,1.02,169.95,291115,,,A*77
$GPGGA,215819.000,4902.0192,N,12303.3720,W,1,05,4.3,6.5,M,-16.9,M,,0000*6A
$GPGSA,M,3,14,22,11,32,01,,,,,,,,9.4,4.3,8.4*3D
$GPRMC,215819.000,A,4902.0192,N,12303.3720,W,1.10,169.95,291115,,,A*77
$GPGGA,215820.000,4902.0190,N,12303.3719,W,1,05,4.3,6.3,M,-16.9,M,,0000*6E
$GPGSA,M,3,14,22,11,32,01,,,,,,,,9.4,4.3,8.4*3D
$GPRMC,215820.000,A,4902.0190,N,12303.3719,W,0.98,169.95,291115,,,A*74
$GPGGA,215821.000,4902.0191,N,12303.3720,W,1,05,4.3,6.2,M,-16.9,M,,0000*65
$GPGSA,M,3,14,22,11,32,01,,,,,,,,9.4,4.3,8.4*3D
$GPRMC,215821.000,A,4902.0191,N,12303.3720,W,0.64,169.95,291115,,,A*7D
$GPGGA,215822.000,4902.0192,N,12303.3717,W,1,05,4.3,6.2,M,-16.9,M,,0000*61
$GPGSA,M,3,14,22,11,32,01,,,,,,,,9.4,4.3,8.4*3D
$GPRMC,215822.000,A,4902.0192,N,12303.3717,W,0.71,169.95,291115,,,A*7D
$GPGGA,215823.000,4902.0191,N,12303.3718,W,1,05,4.3,6.2,M,-16.9,M,,0000*6C
$GPGSA,M,3,14,22,11,32,01,,,,,,,,9.4,4.3,8.4*3D
$GPGSV,3,1,12,14,76,131,15,22,64,081,21,11,33,300,17,32,29,272,28*71
$GPGSV,3,2,12,01,22,309,23,10,35,085,17,18,24,089,09,27,19,217,17*75
$GPGSV,3,3,12,46,26,149,,04,49,297,,08,31,251,,24,19,044,*77
$GPRMC,215823.000,A,4902.0191,N,12303.3718,W,0.68,169.95,291115,,,A*78
$GPGGA,215824.000,4902.0195,N,12303.3719,W,1,05,4.3,6.0,M,-16.9,M,,0000*6C
$GPGSA,M,3,14,22,11,32,01,,,,,,,,9.4,4.3,8.4*3D
$GPRMC,215824.000,A,4902.0195,N,12303.3719,W,0.08,169.95,291115,,,A*7C
$GPGGA,215825.000,4902.0196,N,12303.3719,W,1,05,4.3,5.8,M,-16.9,M,,0000*65
$GPGSA,M,3,14,22,11,32,01,,,,,,,,9.4,4.3,8.4*3D
$GPRMC,215825.000,A,4902.0196,N,12303.3719,W,0.33,169.95,291115,,,A*76
$GPGGA,215826.000,4902.0196,N,12303.3721,W,1,05,4.3,5.6,M,-16.9,M,,0000*63
$GPGSA,M,3,14,22,11,32,01,,,,,,,,9.4,4.3,8.4*3D
$GPRMC,215826.000,A,4902.0196,N,12303.3721,W,0.13,169.95,291115,,,A*7C
$GPGGA,215827.000,4902.0195,N,12303.3722,W,1,05,4.3,5.3,M,-16.9,M,,0000*67
$GPGSA,M,3,14,22,11,32,01,,,,,,,,9.4,4.3,8.4*3D
$GPRMC,215827.000,A,4902.0195,N,12303.3722,W,0.49,169.95,291115,,,A*72
$GPGGA,215828.000,4902.0194,N,12303.3720,W,1,05,4.3,5.1,M,-16.9,M,,0000*69
$GPGSA,M,3,14,22,11,32,01,,,,,,,,9.4,4.3,8.4*3D
$GPGSV,3,1,12,14,76,131,15,22,64,081,21,11,33,300,17,32,29,272,28*71
$GPGSV,3,2,12,01,22,309,23,10,35,085,17,18,24,089,08,21,01,140,13*7E
$GPGSV,3,3,12,46,26,149,,04,49,297,,08,31,251,,27,19,217,*70
$GPRMC,215828.000,A,4902.0194,N,12303.3720,W,0.69,169.95,291115,,,A*7C
$GPGGA,215829.000,4902.0196,N,12303.3718,W,1,05,4.3,4.8,M,-16.9,M,,0000*69
$GPGSA,M,3,14,22,11,32,01,,,,,,,,9.4,4.3,8.4*3D
$GPRMC,215829.000,A,4902.0196,N,12303.3718,W,0.86,169.95,291115,,,A*75
$GPGGA,215830.000,4902.0196,N,12303.3719,W,1,05,4.3,4.6,M,-16.9,M,,0000*6E
$GPGSA,M,3,14,22,11,32,01,,,,,,,,9.4,4.3,8.4*3D
$GPRMC,215830.000,A,4902.0196,N,12303.3719,W,0.52,169.95,291115,,,A*75
$GPGGA,215831.000,4902.0197,N,12303.3718,W,1,05,4.3,4.5,M,-16.9,M,,0000*6C
$GPGSA,M,3,14,22,11,32,01,,,,,,,,9.4,4.3,8.4*3D
$GPRMC,215831.000,A,4902.0197,N,12303.3718,W,0.68,169.95,291115,,,A*7D
$GPGGA,215832.000,4902.0198,N,12303.3718,W,1,05,4.3,4.4,M,-16.9,M,,0000*61
$GPGSA,M,3,14,22,11,32,01,,,,,,,,9.4,4.3,8.4*3D
$GPRMC,215832.000,A,4902.0198,N,12303.3718,W,0.32,169.95,291115,,,A*7E
$GPGGA,215833.000,4902.0195,N,12303.3719,W,1,05,4.3,4.2,M,-16.9,M,,0000*6A
$GPGSA,M,3,14,22,11,32,01,,,,,,,,9.4,4.3,8.4*3D
$GPGSV,3,1,12,14,76,131,15,22,64,081,22,11,33,300,17,32,29,272,28*72
$GPGSV,3,2,12,01,22,309,23,10,35,085,16,18,24,089,08,21,01,140,13*7F
$GPGSV,3,3,12,48,32,193,,04,49,297,,08,31,251,,27,19,217,*7C
$GPRMC,215833.000,A,4902.0195,N,12303.3719,W,0.67,169.95,291115,,,A*73
$GPGGA,215834.000,4902.0192,N,12303.3718,W,1,05,4.3,4.1,M,-16.9,M,,0000*68
$GPGSA,M,3,14,22,11,32,01,,,,,,,,9.4,4.3,8.4*3D
$GPRMC,215834.000,A,4902.0192,N,12303.3718,W,0.85,169.95,291115,,,A*7E
$GPGGA,215835.000,4902.0192,N,12303.3720,W,1,05,4.3,4.0,M,-16.9,M,,0000*63
$GPGSA,M,3,14,22,11,32,01,,,,,,,,9.4,4.3,8.4*3D
$GPRMC,215835.000,A,4902.0192,N,12303.3720,W,0.54,169.95,291115,,,A*78
$GPGGA,215836.000,4902.0195,N,12303.3722,W,1,05,4.3,4.0,M,-16.9,M,,0000*65
$GPGSA,M,3,14,22,11,32,01,,,,,,,,9.4,4.3,8.4*3D
$GPRMC,215836.000,A,4902.0195,N,12303.3722,W,0.24,169.95,291115,,,A*79
$GPGGA,215837.000,4902.0199,N,12303.3724,W,1,05,4.3,4.0,M,-16.9,M,,0000*6E
$GPGSA,M,3,14,22,11,32,01,,,,,,,,9.4,4.3,8.4*3D
$GPRMC,215837.000,A,4902.0199,N,12303.3724,W,0.59,169.95,291115,,,A*78
$GPGGA,215838.000,4902.0199,N,12303.3728,W,1,05,4.3,3.9,M,-16.9,M,,0000*63
$GPGSA,M,3,14,22,11,32,01,,,,,,,,9.4,4.3,8.4*3D
$GPGSV,3,1,12,14,76,131,15,22,64,081,22,11,33,300,16,32,29,272,28*73
$GPGSV,3,2,12,01,22,309,23,18,24,089,04,21,01,140,13,27,19,217,13*75
$GPGSV,3,3,12,48,32,193,,04,49,297,,10,35,085,,08,31,251,*7F
$GPRMC,215838.000,A,4902.0199,N,12303.3728,W,0.51,169.95,291115,,,A*73
$GPGGA,215839.000,4902.0203,N,12303.3730,W,1,05,4.3,3.8,M,-16.9,M,,0000*6A
$GPGSA,M,3,14,22,11,32,01,,,,,,,,9.4,4.3,8.4*3D
$GPRMC,215839.000,A,4902.0203,N,12303.3730,W,0.73,169.95,291115,,,A*7B
$GPGGA,215840.000,4902.0205,N,12303.3732,W,1,05,4.3,3.7,M,-16.9,M,,0000*6F
$GPGSA,M,3,14,22,11,32,01,,,,,,,,9.4,4.3,8.4*3D
$GPRMC,215840.000,A,4902.0205,N,12303.3732,W,0.81,169.95,291115,,,A*7C
$GPGGA,215841.000,4902.0205,N,12303.3733,W,1,05,4.3,3.7,M,-16.9,M,,0000*6F
$GPGSA,M,3,14,22,11,32,01,,,,,,,,9.4,4.3,8.4*3D
$GPRMC,215841.000,A,4902.0205,N,12303.3733,W,0.71,169.95,291115,,,A*73
$GPGGA,215842.000,4902.0207,N,12303.3732,W,1,05,4.3,3.6,M,-16.9,M,,0000*6E
$GPGSA,M,3,14,22,11,32,01,,,,,,,,9.4,4.3,8.4*3D
$GPRMC,215842.000,A,4902.0207,N,12303.3732,W,0.57,169.95,291115,,,A*77
$GPGGA,215843.000,4902.0208,N,12303.3734,W,1,05,4.3,3.5,M,-16.9,M,,0000*65
$GPGSA,M,3,14,22,11,32,01,,,,,,,,9.4,4.3,8.4*3D
$GPGSV,3,1,12,14,76,131,15,22,64,081,22,11,33,300,16,32,29,272,28*73
$GPGSV,3,2,12,01,22,309,23,18,24,089,05,21,01,140,14,27,19,217,12*72
$GPGSV,3,3,12,48,32,193,,04,49,297,,10,35,085,,08,31,251,*7F
$GPRMC,215843.000,A,4902.0208,N,12303.3734,W,0.27,169.95,291115,,,A*78
$GPGGA,215844.000,4902.0205,N,12303.3733,W,1,05,4.3,3.4,M,-16.9,M,,0000*69
$GPGSA,M,3,14,22,11,32,01,,,,,,,,9.4,4.3,8.4*3D
$GPRMC,215844.000,A,4902.0205,N,12303.3733,W,0.33,169.95,291115,,,A*70
$GPGGA,215845.000,4902.0206,N,12303.3733,W,1,05,4.3,3.4,M,-16.9,M,,0000*6B
$GPGSA,M,3,14,22,11,32,01,,,,,,,,9.4,4.3,8.4*3D
$GPRMC,215845.000,A,4902.0206,N,12303.3733,W,0.27,169.95,291115,,,A*77
$GPGGA,215846.000,4902.0204,N,12303.3732,W,1,05,4.3,3.5,M,-16.9,M,,0000*6A
$GPGSA,M,3,14,22,11,32,01,,,,,,,,9.4,4.3,8.4*3D
$GPRMC,215846.000,A,4902.0204,N,12303.3732,W,0.13,169.95,291115,,,A*70
$GPGGA,215847.000,4902.0205,N,12303.3732,W,1,05,4.3,3.5,M,-16.9,M,,0000*6A
$GPGSA,M,3,14,22,11,32,01,,,,,,,,9.4,4.3,8.4*3D
$GPRMC,215847.000,A,4902.0205,N,12303.3732,W,0.18,169.95,291115,,,A*7B
$GPGGA,215848.000,4902.0204,N,12303.3732,W,1,05,4.3,3.4,M,-16.9,M,,0000*65
$GPGSA,M,3,14,22,11,32,01,,,,,,,,9.4,4.3,8.4*3D
$GPGSV,3,1,12,14,76,131,15,22,64,081,22,11,33,300,16,32,29,272,28*73
$GPGSV,3,2,12,01,22,309,23,18,24,089,04,27,19,217,11,48,32,193,*74
$GPGSV,3,3,12,04,49,297,,10,35,085,,08,31,251,,24,19,044,*77
$GPRMC,215848.000,A,4902.0204,N,12303.3732,W,0.17,169.95,291115,,,A*7A
$GPGGA,215849.000,4902.0205,N,12303.3733,W,1,05,4.3,3.3,M,-16.9,M,,0000*63
$GPGSA,M,3,14,22,11,32,01,,,,,,,,9.4,4.3,8.4*3D
$GPRMC,215849.000,A,4902.0205,N,12303.3733,W,0.18,169.95,291115,,,A*74
$GPGGA,215850.000,4902.0205,N,12303.3733,W,1,05,4.3,3.2,M,-16.9,M,,0000*6A
$GPGSA,M,3,14,22,11,32,01,,,,,,,,9.4,4.3,8.4*3D
$GPRMC,215850.000,A,4902.0205,N,12303.3733,W,0.53,169.95,291115,,,A*73
$GPGGA,215851.000,4902.0203,N,12303.3731,W,1,05,4.3,3.2,M,-16.9,M,,0000*6F
$GPGSA,M,3,14,22,11,32,01,,,,,,,,9.4,4.3,8.4*3D
$GPRMC,215851.000,A,4902.0203,N,12303.3731,W,0.51,169.95,291115,,,A*74
$GPGGA,215852.000,4902.0203,N,12303.3732,W,1,05,4.3,3.1,M,-16.9,M,,0000*6C
$GPGSA,M,3,14,22,11,32,01,,,,,,,,9.4,4.3,8.4*3D
$GPRMC,215852.000,A,4902.0203,N,12303.3732,W,0.13,169.95,291115,,,A*72
$GPGGA,215853.000,4902.0202,N,12303.3732,W,1,05,4.3,3.0,M,-16.9,M,,0000*6D
$GPGSA,M,3,14,22,11,32,01,,,,,,,,9.4,4.3,8.4*3D
$GPGSV,3,1,12,14,76,131,12,22,64,081,22,11,33,300,16,32,29,272,28*74
$GPGSV,3,2,12,01,22,309,23,18,24,089,05,24,19,044,11,27,19,217,12*7E
$GPGSV,3,3,12,48,32,193,,04,49,297,,10,35,085,,08,31,251,*7F
$GPRMC,215853.000,A,4902.0202,N,12303.3732,W,0.22,169.95,291115,,,A*70
$GPGGA,215854.000,4902.0203,N,12303.3733,W,1,05,4.3,3.0,M,-16.9,M,,0000*6A
$GPGSA,M,3,14,22,11,32,01,,,,,,,,9.4,4.3,8.4*3D
$GPRMC,215854.000,A,4902.0203,N,12303.3733,W,0.12,169.95,291115,,,A*74
$GPGGA,215855.000,4902.0199,N,12303.3734,W,1,05,4.3,2.9,M,-16.9,M,,0000*64
$GPGSA,M,3,14,22,11,32,01,,,,,,,,9.4,4.3,8.4*3D
$GPRMC,215855.000,A,4902.0199,N,12303.3734,W,0.45,169.95,291115,,,A*70
$GPGGA,215856.000,4902.0199,N,12303.3733,W,1,05,4.3,2.9,M,-16.9,M,,0000*60
$GPGSA,M,3,14,22,11,32,01,,,,,,,,9.4,4.3,8.4*3D
$GPRMC,215856.000,A,4902.0199,N,12303.3733,W,0.40,169.95,291115,,,A*71
$GPGGA,215857.000,4902.0201,N,12303.3733,W,1,05,4.3,2.9,M,-16.9,M,,0000*63
$GPGSA,M,3,14,22,11,32,01,,,,,,,,9.4,4.3,8.4*3D
$GPRMC,215857.000,A,4902.0201,N,12303.3733,W,0.34,169.95,291115,,,A*71
$GPGGA,215858.000,4902.0200,N,12303.3734,W,1,05,4.3,2.8,M,-16.9,M,,0000*6B
$GPGSA,M,3,14,22,11,32,01,,,,,,,,9.4,4.3,8.4*3D
$GPGSV,3,1,12,14,76,131,12,22,64,081,22,11,33,300,17,32,29,272,28*75
$GPGSV,3,2,12,01,22,309,22,18,24,089,05,24,19,044,04,27,19,217,11*78
$GPGSV,3,3,12,48,32,193,,04,49,297,,10,35,085,,08,31,251,*7F
$GPRMC,215858.000,A,4902.0200,N,12303.3734,W,0.26,169.95,291115,,,A*7B
$GPGGA,215859.000,4902.0198,N,12303.3736,W,1,04,2.8,2.8,M,-16.9,M,,0000*66
$GPGSA,M,3,22,11,32,01,,,,,,,,,4.1,2.8,3.0*32
$GPRMC,215859.000,A,4902.0198,N,12303.3736,W,0.10,169.95,291115,,,A*7F
$GPGGA,215900.000,4902.0196,N,12303.3739,W,1,05,4.3,2.7,M,-16.9,M,,0000*69
$GPGSA,M,3,14,22,11,32,01,,,,,,,,9.4,4.3,8.4*3D
$GPRMC,215900.000,A,4902.0196,N,12303.3739,W,0.21,169.95,291115,,,A*71
$GPGGA,215901.000,4902.0197,N,12303.3740,W,1,04,2.8,2.7,M,-16.9,M,,0000*6B
$GPGSA,M,3,22,11,32,01,,,,,,,,,4.1,2.8,3.0*32
$GPRMC,215901.000,A,4902.0197,N,12303.3740,W,0.36,169.95,291115,,,A*79
$GPGGA,215902.000,4902.0194,N,12303.3742,W,1,04,2.8,2.8,M,-16.9,M,,0000*66
$GPGSA,M,3,22,11,32,01,,,,,,,,,4.1,2.8,3.0*32
$GPRMC,215902.000,A,4902.0194,N,12303.3742,W,0.41,169.95,291115,,,A*7B
$GPGGA,215903.000,4902.0195,N,12303.3742,W,1,04,2.8,2.8,M,-16.9,M,,0000*66
$GPGSA,M,3,22,11,32,01,,,,,,,,,4.1,2.8,3.0*32
$GPGSV,3,1,12,22,64,081,23,11,33,300,16,32,29,272,28,01,22,309,22*7A
$GPGSV,3,2,12,14,76,131,11,18,24,089,04,21,01,140,14,24,19,044,04*7E
$GPGSV,3,3,12,27,19,217,12,48,32,193,,04,49,297,,10,35,085,*79
$GPRMC,215903.000,A,4902.0195,N,12303.3742,W,0.10,169.95,291115,,,A*7F
$GPGGA,215904.000,4902.0193,N,12303.3741,W,1,04,2.8,2.8,M,-16.9,M,,0000*64
$GPGSA,M,3,22,11,32,01,,,,,,,,,4.1,2.8,3.0*32
$GPRMC,215904.000,A,4902.0193,N,12303.3741,W,0.43,169.95,291115,,,A*7B
$GPGGA,215905.000,4902.0192,N,12303.3741,W,1,04,2.8,2.9,M,-16.9,M,,0000*65
$GPGSA,M,3,22,11,32,01,,,,,,,,,4.1,2.8,3.0*32
$GPRMC,215905.000,A,4902.0192,N,12303.3741,W,0.22,169.95,291115,,,A*7C
$GPGGA,215906.000,4902.0194,N,12303.3745,W,1,04,2.8,2.9,M,-16.9,M,,0000*64
$GPGSA,M,3,22,11,32,01,,,,,,,,,4.1,2.8,3.0*32
$GPRMC,215906.000,A,4902.0194,N,12303.3745,W,0.23,169.95,291115,,,A*7C
$GPGGA,215907.000,4902.0200,N,12303.3749,W,1,05,2.4,2.9,M,-16.9,M,,0000*6A
$GPGSA,M,3,22,11,32,01,27,,,,,,,,5.6,2.4,5.1*3A
$GPRMC,215907.000,A,4902.0200,N,12303.3749,W,0.49,169.95,291115,,,A*73
$GPGGA,215908.000,4902.0203,N,12303.3751,W,1,04,2.8,3.0,M,-16.9,M,,0000*6A
$GPGSA,M,3,22,11,32,01,,,,,,,,,4.1,2.8,3.0*32
$GPGSV,3,1,12,22,63,082,23,11,34,299,17,32,30,273,27,01,23,309,22*7E
$GPGSV,3,2,12,14,76,125,08,18,23,090,11,24,18,043,04,27,18,216,13*77
$GPGSV,3,3,12,48,32,193,,04,50,296,,10,34,086,,08,30,250,*74
$GPRMC,215908.000,A,4902.0203,N,12303.3751,W,0.63,169.95,291115,,,A*7E
$GPGGA,215909.000,4902.0204,N,12303.3752,W,1,04,2.8,3.0,M,-16.9,M,,0000*6F
$GPGSA,M,3,22,11,32,01,,,,,,,,,4.1,2.8,3.0*32
$GPRMC,215909.000,A,4902.0204,N,12303.3752,W,0.63,169.95,291115,,,A*7B
$GPGGA,215910.000,4902.0204,N,12303.3756,W,1,04,2.8,3.0,M,-16.9,M,,0000*63
$GPGSA,M,3,22,11,32,01,,,,,,,,,4.1,2.8,3.0*32
$GPRMC,215910.000,A,4902.0204,N,12303.3756,W,0.50,169.95,291115,,,A*77
$GPGGA,215911.000,4902.0200,N,12303.3760,W,1,04,2.8,3.0,M,-16.9,M,,0000*63
$GPGSA,M,3,22,11,32,01,,,,,,,,,4.1,2.8,3.0*32
$GPRMC,215911.000,A,4902.0200,N,12303.3760,W,0.61,169.95,291115,,,A*75
$GPGGA,215912.000,4902.0198,N,12303.3761,W,1,04,2.8,3.0,M,-16.9,M,,0000*63
$GPGSA,M,3,22,11,32,01,,,,,,,,,4.1,2.8,3.0*32
$GPRMC,215912.000,A,4902.0198,N,12303.3761,W,0.42,169.95,291115,,,A*74
$GPGGA,215913.000,4902.0199,N,12303.3762,W,1,04,2.8,3.0,M,-16.9,M,,0000*60
$GPGSA,M,3,22,11,32,01,,,,,,,,,4.1,2.8,3.0*32
$GPGSV,3,1,12,22,63,082,23,11,34,299,17,32,30,273,27,01,23,309,22*7E
$GPGSV,3,2,12,14,76,125,09,21,00,140,14,24,18,043,04,27,18,216,13*74
$GPGSV,3,3,12,48,32,193,,04,50,296,,10,34,086,,08,30,250,*74
$GPRMC,215913.000,A,4902.0199,N,12303.3762,W,0.22,169.95,291115,,,A*71
$GPGGA,215914.000,4902.0198,N,12303.3762,W,1,04,2.8,3.1,M,-16.9,M,,0000*67
$GPGSA,M,3,22,11,32,01,,,,,,,,,4.1,2.8,3.0*32
$GPRMC,215914.000,A,4902.0198,N,12303.3762,W,0.22,169.95,291115,,,A*77
$GPGGA,215915.000,4902.0197,N,12303.3765,W,1,04,2.8,3.1,M,-16.9,M,,0000*6E
$GPGSA,M,3,22,11,32,01,,,,,,,,,4.1,2.8,3.0*32
$GPRMC,215915.000,A,4902.0197,N,12303.3765,W,0.31,169.95,291115,,,A*7C
$GPGGA,215916.000,4902.0196,N,12303.3764,W,1,04,2.8,3.1,M,-16.9,M,,0000*6D
$GPGSA,M,3,22,11,32,01,,,,,,,,,4.1,2.8,3.0*32
$GPRMC,215916.000,A,4902.0196,N,12303.3764,W,0.21,169.95,291115,,,A*7E
$GPGGA,215917.000,4902.0197,N,12303.3765,W,1,04,2.8,3.1,M,-16.9,M,,0000*6C
$GPGSA,M,3,22,11,32,01,,,,,,,,,4.1,2.8,3.0*32
$GPRMC,215917.000,A,4902.0197,N,12303.3765,W,0.53,169.95,291115,,,A*7A
$GPGGA,215918.000,4902.0196,N,12303.3766,W,1,04,2.8,3.1,M,-16.9,M,,0000*61
$GPGSA,M,3,22,11,32,01,,,,,,,,,4.1,2.8,3.0*32
$GPGSV,3,1,12,22,63,082,23,11,34,299,18,32,30,273,27,01,23,309,22*71
$GPGSV,3,2,12,08,30,250,15,14,76,125,10,18,23,090,16,21,00,140,12*73
$GPGSV,3,3,12,27,18,216,11,48,32,193,,04,50,296,,10,34,086,*71
$GPRMC,215918.000,A,4902.0196,N,12303.3766,W,0.65,169.95,291115,,,A*72
$GPGGA,215919.000,4902.0193,N,12303.3766,W,1,04,2.8,3.1,M,-16.9,M,,0000*65
$GPGSA,M,3,22,11,32,01,,,,,,,,,4.1,2.8,3.0*32
$GPRMC,215919.000,A,4902.0193,N,12303.3766,W,0.30,169.95,291115,,,A*76
$GPGGA,215920.000,4902.0194,N,12303.3764,W,1,04,2.8,3.1,M,-16.9,M,,0000*6A
$GPGSA,M,3,22,11,32,01,,,,,,,,,4.1,2.8,3.0*32
$GPRMC,215920.000,A,4902.0194,N,12303.3764,W,0.26,169.95,291115,,,A*7E
$GPGGA,215921.000,4902.0196,N,12303.3766,W,1,04,2.8,3.1,M,-16.9,M,,0000*6B
$GPGSA,M,3,22,11,32,01,,,,,,,,,4.1,2.8,3.0*32
$GPRMC,215921.000,A,4902.0196,N,12303.3766,W,0.20,169.95,291115,,,A*79
$GPGGA,215922.000,4902.0195,N,12303.3768,W,1,04,2.8,3.1,M,-16.9,M,,0000*65
$GPGSA,M,3,22,11,32,01,,,,,,,,,4.1,2.8,3.0*32
$GPRMC,215922.000,A,4902.0195,N,12303.3768,W,0.27,169.95,291115,,,A*70
$GPGGA,215923.000,4902.0193,N,12303.3766,W,1,04,2.8,3.2,M,-16.9,M,,0000*6F
$GPGSA,M,3,22,11,32,01,,,,,,,,,4.1,2.8,3.0*32
$GPGSV,3,1,12,22,63,082,23,11,34,299,18,32,30,273,28,01,23,309,22*7E
$GPGSV,3,2,12,14,76,125,11,18,23,090,14,21,00,140,14,27,18,216,11*77
$GPGSV,3,3,12,48,32,193,,04,50,296,,10,34,086,,08,30,250,*74
$GPRMC,215923.000,A,4902.0193,N,12303.3766,W,0.26,169.95,291115,,,A*78
$GPGGA,215924.000,4902.0187,N,12303.3765,W,1,04,2.8,3.2,M,-16.9,M,,0000*6E
$GPGSA,M,3,22,11,32,01,,,,,,,,,4.1,2.8,3.0*32
$GPRMC,215924.000,A,4902.0187,N,12303.3765,W,0.83,169.95,291115,,,A*76
$GPGGA,215925.000,4902.0183,N,12303.3766,W,1,04,2.8,3.2,M,-16.9,M,,0000*68
$GPGSA,M,3,22,11,32,01,,,,,,,,,4.1,2.8,3.0*32
$GPRMC,215925.000,A,4902.0183,N,12303.3766,W,1.11,169.95,291115,,,A*7A
$GPGGA,215926.000,4902.0183,N,12303.3764,W,1,04,2.8,3.3,M,-16.9,M,,0000*68
$GPGSA,M,3,22,11,32,01,,,,,,,,,4.1,2.8,3.0*32
$GPRMC,215926.000,A,4902.0183,N,12303.3764,W,0.66,169.95,291115,,,A*7A
$GPGGA,215927.000,4902.0182,N,12303.3763,W,1,04,2.8,3.3,M,-16.9,M,,0000*6F
$GPGSA,M,3,22,11,32,01,,,,,,,,,4.1,2.8,3.0*32
$GPRMC,215927.000,A,4902.0182,N,12303.3763,W,0.71,169.95,291115,,,A*7B
$GPGGA,215928.000,4902.0178,N,12303.3764,W,1,04,2.8,3.3,M,-16.9,M,,0000*62
$GPGSA,M,3,22,11,32,01,,,,,,,,,4.1,2.8,3.0*32
$GPGSV,3,1,12,22,63,082,23,11,34,299,19,32,30,273,27,01,23,309,22*70
$GPGSV,3,2,12,08,30,250,14,14,76,125,04,21,00,140,12,27,18,216,13*7A
$GPGSV,3,3,12,48,32,193,,04,50,296,,10,34,086,,18,23,090,*79
$GPRMC,215928.000,A,4902.0178,N,12303.3764,W,1.08,169.95,291115,,,A*79
$GPGGA,215929.000,4902.0180,N,12303.3766,W,1,04,2.8,3.3,M,-16.9,M,,0000*66
$GPGSA,M,3,22,11,32,01,,,,,,,,,4.1,2.8,3.0*32
$GPRMC,215929.000,A,4902.0180,N,12303.3766,W,0.90,169.95,291115,,,A*7D
$GPGGA,215930.000,4902.0182,N,12303.3771,W,1,04,2.8,3.3,M,-16.9,M,,0000*6A
$GPGSA,M,3,22,11,32,01,,,,,,,,,4.2,2.8,3.0*31
$GPRMC,215930.000,A,4902.0182,N,12303.3771,W,0.66,169.95,291115,,,A*78
$GPGGA,215931.000,4902.0185,N,12303.3773,W,1,04,2.8,3.3,M,-16.9,M,,0000*6E
$GPGSA,M,3,22,11,32,01,,,,,,,,,4.2,2.8,3.0*31
$GPRMC,215931.000,A,4902.0185,N,12303.3773,W,0.47,169.95,291115,,,A*7F
$GPGGA,215932.000,4902.0187,N,12303.3774,W,1,04,2.8,3.3,M,-16.9,M,,0000*68
$GPGSA,M,3,22,11,32,01,,,,,,,,,4.2,2.8,3.0*31
$GPRMC,215932.000,A,4902.0187,N,12303.3774,W,0.10,169.95,291115,,,A*7B
$GPGGA,215933.000,4902.0190,N,12303.3776,W,1,04,2.8,3.3,M,-16.9,M,,0000*6D
$GPGSA,M,3,22,11,32,01,,,,,,,,,4.2,2.8,3.0*31
$GPGSV,3,1,12,22,63,082,23,11,35,299,19,32,30,273,28,01,24,309,21*7A
$GPGSV,3,2,12,14,76,124,05,18,23,090,10,27,18,216,15,51,31,159,*7B
$GPGSV,3,3,12,04,50,296,,10,34,086,,08,30,250,,24,18,043,*7A
$GPRMC,215933.000,A,4902.0190,N,12303.3776,W,0.32,169.95,291115,,,A*7E
$GPGGA,215934.000,4902.0193,N,12303.3779,W,1,04,2.8,3.3,M,-16.9,M,,0000*66
$GPGSA,M,3,22,11,32,01,,,,,,,,,4.2,2.8,3.0*31
$GPRMC,215934.000,A,4902.0193,N,12303.3779,W,0.79,169.95,291115,,,A*7A
$GPGGA,215935.000,4902.0195,N,12303.3782,W,1,04,2.8,3.3,M,-16.9,M,,0000*65
$GPGSA,M,3,22,11,32,01,,,,,,,,,4.2,2.8,3.0*31
$GPRMC,215935.000,A,4902.0195,N,12303.3782,W,0.58,169.95,291115,,,A*7A
$GPGGA,215936.000,4902.0196,N,12303.3783,W,1,04,2.8,3.3,M,-16.9,M,,0000*64
$GPGSA,M,3,22,11,32,01,,,,,,,,,4.2,2.8,3.0*31
$GPRMC,215936.000,A,4902.0196,N,12303.3783,W,0.12,169.95,291115,,,A*75
$GPGGA,215937.000,4902.0195,N,12303.3783,W,1,04,2.8,3.3,M,-16.9,M,,0000*66
$GPGSA,M,3,22,11,32,01,,,,,,,,,4.2,2.8,3.0*31
$GPRMC,215937.000,A,4902.0195,N,12303.3783,W,0.18,169.95,291115,,,A*7D
$GPGGA,215938.000,4902.0193,N,12303.3782,W,1,04,2.8,3.2,M,-16.9,M,,0000*6F
$GPGSA,M,3,22,11,32,01,,,,,,,,,4.2,2.8,3.0*31
$GPGSV,3,1,12,22,63,082,24,11,35,299,19,32,30,273,28,01,24,309,21*7D
$GPGSV,3,2,12,14,76,124,06,21,00,140,14,27,18,216,15,51,31,159,*7B
$GPGSV,3,3,12,04,50,296,,10,34,086,,08,30,250,,18,23,090,*73
$GPRMC,215938.000,A,4902.0193,N,12303.3782,W,0.57,169.95,291115,,,A*7E
$GPGGA,215939.000,4902.0189,N,12303.3783,W,1,04,2.8,3.2,M,-16.9,M,,0000*64
$GPGSA,M,3,22,11,32,01,,,,,,,,,4.2,2.8,3.0*31
$GPRMC,215939.000,A,4902.0189,N,12303.3783,W,0.96,169.95,291115,,,A*78
$GPGGA,215940.000,4902.0187,N,12303.3785,W,1,04,2.8,3.2,M,-16.9,M,,0000*62
$GPGSA,M,3,22,11,32,01,,,,,,,,,4.2,2.8,3.0*31
$GPRMC,215940.000,A,4902.0187,N,12303.3785,W,1.10,169.95,291115,,,A*71
$GPGGA,215941.000,4902.0186,N,12303.3783,W,1,04,2.8,3.2,M,-16.9,M,,0000*64
$GPGSA,M,3,22,11,32,01,,,,,,,,,4.2,2.8,3.0*31
$GPRMC,215941.000,A,4902.0186,N,12303.3783,W,0.61,169.95,291115,,,A*70
$GPGGA,215942.000,4902.0186,N,12303.3781,W,1,04,2.9,3.2,M,-16.9,M,,0000*64
$GPGSA,M,3,22,11,32,01,,,,,,,,,4.2,2.9,3.0*30
$GPRMC,215942.000,A,4902.0186,N,12303.3781,W,0.19,169.95,291115,,,A*7E
$GPGGA,215943.000,4902.0186,N,12303.3783,W,1,04,2.9,3.2,M,-16.9,M,,0000*67
$GPGSA,M,3,22,11,32,01,,,,,,,,,4.2,2.9,3.0*30
$GPGSV,3,1,12,22,63,082,24,11,35,299,19,32,30,273,28,01,24,309,21*7D
$GPGSV,3,2,12,14,76,124,09,18,23,090,17,27,18,216,12,51,31,159,*77
$GPGSV,3,3,12,04,50,296,,10,34,086,,08,30,250,,24,18,043,*7A
$GPRMC,215943.000,A,4902.0186,N,12303.3783,W,0.15,169.95,291115,,,A*71
$GPGGA,215944.000,4902.0184,N,12303.3785,W,1,04,2.9,3.2,M,-16.9,M,,0000*64
$GPGSA,M,3,22,11,32,01,,,,,,,,,4.2,2.9,3.0*30
$GPRMC,215944.000,A,4902.0184,N,12303.3785,W,0.25,169.95,291115,,,A*71
$GPGGA,215945.000,4902.0187,N,12303.3787,W,1,04,2.9,3.2,M,-16.9,M,,0000*64
$GPGSA,M,3,22,11,32,01,,,,,,,,,4.2,2.9,3.0*30
$GPRMC,215945.000,A,4902.0187,N,12303.3787,W,0.37,169.95,291115,,,A*72
$GPGGA,215946.000,4902.0186,N,12303.3786,W,1,04,2.9,3.2,M,-16.9,M,,0000*67
$GPGSA,M,3,22,11,32,01,,,,,,,,,4.2,2.9,3.0*30
$GPRMC,215946.000,A,4902.0186,N,12303.3786,W,0.12,169.95,291115,,,A*76
$GPGGA,215947.000,4902.0187,N,12303.3783,W,1,04,2.9,3.2,M,-16.9,M,,0000*62
$GPGSA,M,3,22,11,32,01,,,,,,,,,4.2,2.9,3.0*30
$GPRMC,215947.000,A,4902.0187,N,12303.3783,W,0.43,169.95,291115,,,A*77
$GPGGA,215948.000,4902.0188,N,12303.3784,W,1,04,2.9,3.2,M,-16.9,M,,0000*65
$GPGSA,M,3,22,11,32,01,,,,,,,,,4.2,2.9,3.0*30
$GPGSV,3,1,12,22,63,082,24,11,35,299,19,32,30,273,28,01,24,309,21*7D
$GPGSV,3,2,12,14,76,124,10,18,23,090,12,21,00,140,14,27,18,216,12*72
$GPGSV,3,3,12,51,31,159,,04,50,296,,10,34,086,,08,30,250,*79
$GPRMC,215948.000,A,4902.0188,N,12303.3784,W,0.32,169.95,291115,,,A*76
$GPGGA,215949.000,4902.0192,N,12303.3785,W,1,04,2.9,3.2,M,-16.9,M,,0000*6E
$GPGSA,M,3,22,11,32,01,,,,,,,,,4.2,2.9,3.0*30
$GPRMC,215949.000,A,4902.0192,N,12303.3785,W,0.76,169.95,291115,,,A*7D
$GPGGA,215950.000,4902.0190,N,12303.3786,W,1,04,2.9,3.2,M,-16.9,M,,0000*67
$GPGSA,M,3,22,11,32,01,,,,,,,,,4.2,2.9,3.0*30
$GPRMC,215950.000,A,4902.0190,N,12303.3786,W,0.05,169.95,291115,,,A*70
$GPGGA,215951.000,4902.0191,N,12303.3782,W,1,04,2.9,3.2,M,-16.9,M,,0000*63
$GPGSA,M,3,22,11,32,01,,,,,,,,,4.2,2.9,3.0*30
$GPRMC,215951.000,A,4902.0191,N,12303.3782,W,0.29,169.95,291115,,,A*7A
$GPGGA,215952.000,4902.0193,N,12303.3780,W,1,04,2.9,3.2,M,-16.9,M,,0000*60
$GPGSA,M,3,22,11,32,01,,,,,,,,,4.2,2.9,3.0*30
$GPRMC,215952.000,A,4902.0193,N,12303.3780,W,0.16,169.95,291115,,,A*75
$GPGGA,215953.000,4902.0196,N,12303.3781,W,1,04,2.9,3.2,M,-16.9,M,,0000*65
$GPGSA,M,3,22,11,32,01,,,,,,,,,4.2,2.9,3.0*30
$GPGSV,3,1,12,22,63,083,24,11,35,299,20,32,31,273,28,01,24,309,21*77
$GPGSV,3,2,12,14,76,124,10,24,18,043,10,27,18,216,11,51,31,159,*72
$GPGSV,3,3,12,04,50,296,,10,34,086,,08,30,250,,18,23,090,*73
$GPRMC,215953.000,A,4902.0196,N,12303.3781,W,0.19,169.95,291115,,,A*7F
$GPGGA,215954.000,4902.0195,N,12303.3782,W,1,04,2.9,3.2,M,-16.9,M,,0000*62
$GPGSA,M,3,22,11,32,01,,,,,,,,,4.2,2.9,3.0*30
$GPRMC,215954.000,A,4902.0195,N,12303.3782,W,0.20,169.95,291115,,,A*72
$GPGGA,215955.000,4902.0193,N,12303.3783,W,1,04,2.9,3.2,M,-16.9,M,,0000*64
$GPGSA,M,3,22,11,32,01,,,,,,,,,4.2,2.9,3.0*30
$GPRMC,215955.000,A,4902.0193,N,12303.3783,W,0.57,169.95,291115,,,A*74
$GPGGA,215956.000,4902.0194,N,12303.3787,W,1,04,2.9,3.2,M,-16.9,M,,0000*64
$GPGSA,M,3,22,11,32,01,,,,,,,,,4.2,2.9,3.0*30
$GPRMC,215956.000,A,4902.0194,N,12303.3787,W,0.50,169.95,291115,,,A*73
$GPGGA,215957.000,4902.0192,N,12303.3785,W,1,04,2.9,3.2,M,-16.9,M,,0000*61
$GPGSA,M,3,22,11,32,01,,,,,,,,,4.2,2.9,3.0*30
$GPRMC,215957.000,A,4902.0192,N,12303.3785,W,0.49,169.95,291115,,,A*7E
$GPGGA,215958.000,4902.0190,N,12303.3787,W,1,04,2.9,3.2,M,-16.9,M,,0000*6E
